POST _bulk
{"index":{"_index":"michelin"}}
{"name": "Kilian Stuba","year": "2019","pin":{"location":{"lat": "47.34858","lon": "10.17114"}}, "city": "Kleinwalsertal","region": "Austria","zipCode": "87568","cuisine": "Creative","price": "$$$$$","url": "https://guide.michelin.com/at/en/vorarlberg/kleinwalsertal/restaurant/kilian-stuba","star": "1"}
{"index":{"_index":"michelin"}} 
{"name": "Pfefferschiff","year": "2019", "pin":{"location":{"lat": "47.83787","lon": "13.07917"}}, "city": "Hallwang","region": "Austria","zipCode": "5300","cuisine": "Classic cuisine","price": "$$$$$","url": "https://guide.michelin.com/at/en/salzburg-region/hallwang/restaurant/pfefferschiff","star": "1"}
{"index":{"_index":"michelin"}} 
{"name": "Esszimmer","year": "2019", "pin":{"location":{"lat": "47.80685","lon": "13.03409"}}, "city": "Salzburg","region": "Austria","zipCode": "5020","cuisine": "Creative","price": "$$$$$","url": "https://guide.michelin.com/at/en/salzburg-region/salzburg/restaurant/esszimmer","star": "1"}
{"index":{"_index":"michelin"}} 
{"name": "Carpe Diem","year": "2019", "pin":{"location":{"lat": "47.80001","lon": "13.04006"}}, "city": "Salzburg","region": "Austria","zipCode": "5020","cuisine": "Market cuisine","price": "$$$$$","url": "https://guide.michelin.com/at/en/salzburg-region/salzburg/restaurant/carpe-diem","star": "1"}
{"index":{"_index":"michelin"}} 
{"name": "Edvard","year": "2019", "pin":{"location":{"lat": "48.216503","lon": "16.36852"}}, "city": "Wien","region": "Austria","zipCode": "1010","cuisine": "Modern cuisine","price": "$$$$","url": "https://guide.michelin.com/at/en/vienna/wien/restaurant/edvard","star": "1"}
{"index":{"_index":"michelin"}} 
{"name": "Das Loft","year": "2019", "pin":{"location":{"lat": "48.21272","lon": "16.37931"}}, "city": "Wien","region": "Austria","zipCode": "1020","cuisine": "Modern cuisine","price": "$$$$$","url": "https://guide.michelin.com/at/en/vienna/wien/restaurant/das-loft","star": "1"}
{"index":{"_index":"michelin"}} 
{"name": "Pramerl & the Wolf","year": "2019", "pin":{"location":{"lat": "48.20945","lon": "16.37174"}}, "city": "Wien","region": "Austria","zipCode": "1090","cuisine": "Creative","price": "$$$$$","url": "https://guide.michelin.com/at/en/vienna/wien/restaurant/pramerl-the-wolf","star": "1"}
{"index":{"_index":"michelin"}} 
{"name": "Walter Bauer","year": "2019", "pin":{"location":{"lat": "48.20923","lon": "16.37672"}}, "city": "Wien","region": "Austria","zipCode": "1010","cuisine": "Classic cuisine","price": "$$$$$","url": "https://guide.michelin.com/at/en/vienna/wien/restaurant/walter-bauer","star": "1"}
{"index":{"_index":"michelin"}} 
{"name": "SHIKI","year": "2019", "pin":{"location":{"lat": "48.204067","lon": "16.37098"}}, "city": "Wien","region": "Austria","zipCode": "1010","cuisine": "Japanese","price": "$$$$$","url": "https://guide.michelin.com/at/en/vienna/wien/restaurant/shiki","star": "1"}
{"index":{"_index":"michelin"}} 
{"name": "Tian","year": "2019", "pin":{"location":{"lat": "48.20513","lon": "16.37456"}}, "city": "Wien","region": "Austria","zipCode": "1010","cuisine": "Vegetarian","price": "$$$$$","url": "https://guide.michelin.com/at/en/vienna/wien/restaurant/tian","star": "1"}
{"index":{"_index":"michelin"}} 
{"name": "aend","year": "2019", "pin":{"location":{"lat": "48.18957","lon": "16.34115"}}, "city": "Wien","region": "Austria","zipCode": "1010","cuisine": "Modern cuisine","price": "$$$$$","url": "https://guide.michelin.com/at/en/vienna/wien/restaurant/aend","star": "1"}
{"index":{"_index":"michelin"}} 
{"name": "Le Ciel by Toni Mörwald","year": "2019", "pin":{"location":{"lat": "48.20209","lon": "16.37156"}}, "city": "Wien","region": "Austria","zipCode": "1010","cuisine": "Classic cuisine","price": "$$$$$","url": "https://guide.michelin.com/at/en/vienna/wien/restaurant/le-ciel-by-toni-morwald","star": "1"}
{"index":{"_index":"michelin"}} 
{"name": "Chez TJ","year": "2019", "pin":{"location":{"lat": "37.39468","lon": "-122.08044"}}, "city": "San Francisco","region": "California","zipCode": "94041","cuisine": "Contemporary","price": "$$$$","url": "https://guide.michelin.com/us/en/california/south-san-francisco/restaurant/chez-tj","star": "1"}
{"index":{"_index":"michelin"}} 
{"name": "Protégé","year": "2019", "pin":{"location":{"lat": "37.427853","lon": "-122.14362"}}, "city": "San Francisco","region": "California","zipCode": "94301","cuisine": "Contemporary","price": "$$$","url": "https://guide.michelin.com/us/en/california/south-san-francisco/restaurant/protege","star": "1"}
{"index":{"_index":"michelin"}} 
{"name": "Madera","year": "2019", "pin":{"location":{"lat": "37.42014","lon": "-122.21151"}}, "city": "San Francisco","region": "California","zipCode": "94025","cuisine": "Contemporary","price": "$$$","url": "https://guide.michelin.com/us/en/california/san-francisco/restaurant/madera","star": "1"}
{"index":{"_index":"michelin"}} 
{"name": "The Village Pub","year": "2019", "pin":{"location":{"lat": "37.42897","lon": "-122.25178"}}, "city": "San Francisco","region": "California","zipCode": "94062","cuisine": "Contemporary","price": "$$$","url": "https://guide.michelin.com/us/en/california/san-francisco/restaurant/the-village-pub","star": "1"}
{"index":{"_index":"michelin"}} 
{"name": "Plumed Horse","year": "2019", "pin":{"location":{"lat": "37.25648","lon": "-122.03537"}}, "city": "San Francisco","region": "California","zipCode": "95070","cuisine": "Contemporary","price": "$$$$","url": "https://guide.michelin.com/us/en/california/south-san-francisco/restaurant/plumed-horse","star": "1"}
{"index":{"_index":"michelin"}} 
{"name": "Wakuriya","year": "2019", "pin":{"location":{"lat": "37.52114","lon": "-122.3366"}}, "city": "San Francisco","region": "California","zipCode": "94402","cuisine": "Japanese","price": "$$$$","url": "https://guide.michelin.com/us/en/california/san-francisco/restaurant/wakuriya","star": "1"}
{"index":{"_index":"michelin"}} 
{"name": "Sushi Yoshizumi","year": "2019", "pin":{"location":{"lat": "37.565075","lon": "-122.3211"}}, "city": "San Francisco","region": "California","zipCode": "94401","cuisine": "Japanese","price": "$$$$","url": "https://guide.michelin.com/us/en/california/san-francisco/restaurant/sushi-yoshizumi","star": "1"}
{"index":{"_index":"michelin"}} 
{"name": "Rasa","year": "2019", "pin":{"location":{"lat": "37.577522","lon": "-122.345985"}}, "city": "San Francisco","region": "California","zipCode": "94010","cuisine": "Indian","price": "$$","url": "https://guide.michelin.com/us/en/california/san-francisco/restaurant/rasa","star": "1"}
{"index":{"_index":"michelin"}} 
{"name": "Maum","year": "2019", "pin":{"location":{"lat": "37.72669","lon": "-122.414215"}}, "city": "San Francisco","region": "California","zipCode": "94101","cuisine": "Korean","price": "$$$$","url": "https://guide.michelin.com/us/en/california/south-san-francisco/restaurant/maum","star": "1"}
{"index":{"_index":"michelin"}} 
{"name": "Al's Place","year": "2019", "pin":{"location":{"lat": "37.748924","lon": "-122.42013"}}, "city": "San Francisco","region": "California","zipCode": "94110","cuisine": "Californian","price": "$$","url": "https://guide.michelin.com/us/en/california/san-francisco/restaurant/al-s-place","star": "1"}
{"index":{"_index":"michelin"}} 
{"name": "Aster","year": "2019", "pin":{"location":{"lat": "37.755054","lon": "-122.423134"}}, "city": "San Francisco","region": "California","zipCode": "94110","cuisine": "Californian","price": "$$$","url": "https://guide.michelin.com/us/en/california/san-francisco/restaurant/aster","star": "1"}
{"index":{"_index":"michelin"}} 
{"name": "Omakase","year": "2019", "pin":{"location":{"lat": "37.77077","lon": "-122.40298"}}, "city": "San Francisco","region": "California","zipCode": "94103","cuisine": "Japanese","price": "$$$$","url": "https://guide.michelin.com/us/en/california/san-francisco/restaurant/omakase","star": "1"}
{"index":{"_index":"michelin"}} 
{"name": "Commonwealth","year": "2019", "pin":{"location":{"lat": "37.761395","lon": "-122.41946"}}, "city": "San Francisco","region": "California","zipCode": "94110","cuisine": "Contemporary","price": "$$","url": "https://guide.michelin.com/us/en/california/san-francisco/restaurant/commonwealth","star": "1"}
{"index":{"_index":"michelin"}} 
{"name": "Luce","year": "2019", "pin":{"location":{"lat": "37.78194","lon": "-122.40498"}}, "city": "San Francisco","region": "California","zipCode": "94103","cuisine": "Contemporary","price": "$$$","url": "https://guide.michelin.com/us/en/california/san-francisco/restaurant/luce","star": "1"}
{"index":{"_index":"michelin"}} 
{"name": "Birdsong","year": "2019", "pin":{"location":{"lat": "37.779495","lon": "-122.41048"}}, "city": "San Francisco","region": "California","zipCode": "94101","cuisine": "American","price": "$$$$","url": "https://guide.michelin.com/us/en/california/san-francisco/restaurant/birdsong","star": "1"}
{"index":{"_index":"michelin"}} 
{"name": "In Situ","year": "2019", "pin":{"location":{"lat": "37.785633","lon": "-122.40113"}}, "city": "San Francisco","region": "California","zipCode": "94103","cuisine": "International","price": "$$$$","url": "https://guide.michelin.com/us/en/california/san-francisco/restaurant/in-situ","star": "1"}
{"index":{"_index":"michelin"}} 
{"name": "Mourad","year": "2019", "pin":{"location":{"lat": "37.78695","lon": "-122.39987"}}, "city": "San Francisco","region": "California","zipCode": "94105","cuisine": "Moroccan","price": "$$$","url": "https://guide.michelin.com/us/en/california/san-francisco/restaurant/mourad","star": "1"}
{"index":{"_index":"michelin"}} 
{"name": "Hashiri","year": "2019", "pin":{"location":{"lat": "37.783062","lon": "-122.40754"}}, "city": "San Francisco","region": "California","zipCode": "94103","cuisine": "Japanese","price": "$$$$","url": "https://guide.michelin.com/us/en/california/san-francisco/restaurant/hashiri","star": "1"}
{"index":{"_index":"michelin"}} 
{"name": "Angler","year": "2019", "pin":{"location":{"lat": "37.793167","lon": "-122.39213"}}, "city": "San Francisco","region": "California","zipCode": "94101","cuisine": "Contemporary","price": "$$$$","url": "https://guide.michelin.com/us/en/california/san-francisco/restaurant/angler","star": "1"}
{"index":{"_index":"michelin"}} 
{"name": "Rich Table","year": "2019", "pin":{"location":{"lat": "37.774914","lon": "-122.42271"}}, "city": "San Francisco","region": "California","zipCode": "94102","cuisine": "Contemporary","price": "$$$","url": "https://guide.michelin.com/us/en/california/san-francisco/restaurant/rich-table","star": "1"}
{"index":{"_index":"michelin"}} 
{"name": "Kin Khao","year": "2019", "pin":{"location":{"lat": "37.785267","lon": "-122.40951"}}, "city": "San Francisco","region": "California","zipCode": "94102","cuisine": "Thai","price": "$$","url": "https://guide.michelin.com/us/en/california/san-francisco/restaurant/kin-khao","star": "1"}
{"index":{"_index":"michelin"}} 
{"name": "Michael Mina","year": "2019", "pin":{"location":{"lat": "37.79349","lon": "-122.399574"}}, "city": "San Francisco","region": "California","zipCode": "94102","cuisine": "Contemporary","price": "$$$$","url": "https://guide.michelin.com/us/en/california/san-francisco/restaurant/michael-mina","star": "1"}
{"index":{"_index":"michelin"}} 
{"name": "Sons & Daughters","year": "2019", "pin":{"location":{"lat": "37.79037","lon": "-122.40917"}}, "city": "San Francisco","region": "California","zipCode": "94108","cuisine": "Contemporary","price": "$$$$","url": "https://guide.michelin.com/us/en/california/san-francisco/restaurant/sons-daughters","star": "1"}
{"index":{"_index":"michelin"}} 
{"name": "Mister Jiu's","year": "2019", "pin":{"location":{"lat": "37.79371","lon": "-122.406654"}}, "city": "San Francisco","region": "California","zipCode": "94108","cuisine": "Chinese","price": "$$$","url": "https://guide.michelin.com/us/en/california/san-francisco/restaurant/mister-jius","star": "1"}
{"index":{"_index":"michelin"}} 
{"name": "Nico","year": "2019", "pin":{"location":{"lat": "37.795803","lon": "-122.40333"}}, "city": "San Francisco","region": "California","zipCode": "94101","cuisine": "Contemporary","price": "$$$","url": "https://guide.michelin.com/us/en/california/san-francisco/restaurant/nico","star": "1"}
{"index":{"_index":"michelin"}} 
{"name": "jū-ni","year": "2019", "pin":{"location":{"lat": "37.77672","lon": "-122.43886"}}, "city": "San Francisco","region": "California","zipCode": "94117","cuisine": "Japanese","price": "$$$$","url": "https://guide.michelin.com/us/en/california/san-francisco/restaurant/ju-ni","star": "1"}
{"index":{"_index":"michelin"}} 
{"name": "Keiko à Nob Hill","year": "2019", "pin":{"location":{"lat": "37.793106","lon": "-122.41445"}}, "city": "San Francisco","region": "California","zipCode": "94109","cuisine": "Fusion","price": "$$$$","url": "https://guide.michelin.com/us/en/california/san-francisco/restaurant/keiko-a-nob-hill","star": "1"}
{"index":{"_index":"michelin"}} 
{"name": "The Progress","year": "2019", "pin":{"location":{"lat": "37.78371","lon": "-122.43282"}}, "city": "San Francisco","region": "California","zipCode": "94115","cuisine": "Californian","price": "$$$","url": "https://guide.michelin.com/us/en/california/san-francisco/restaurant/the-progress","star": "1"}
{"index":{"_index":"michelin"}} 
{"name": "State Bird Provisions","year": "2019", "pin":{"location":{"lat": "37.783737","lon": "-122.43283"}}, "city": "San Francisco","region": "California","zipCode": "94115","cuisine": "American","price": "$$","url": "https://guide.michelin.com/us/en/california/san-francisco/restaurant/state-bird-provisions","star": "1"}
{"index":{"_index":"michelin"}} 
{"name": "Octavia","year": "2019", "pin":{"location":{"lat": "37.787857","lon": "-122.42709"}}, "city": "San Francisco","region": "California","zipCode": "94109","cuisine": "Californian","price": "$$$","url": "https://guide.michelin.com/us/en/california/san-francisco/restaurant/octavia","star": "1"}
{"index":{"_index":"michelin"}} 
{"name": "SPQR","year": "2019", "pin":{"location":{"lat": "37.78732","lon": "-122.43375"}}, "city": "San Francisco","region": "California","zipCode": "94115","cuisine": "Italian","price": "$$$","url": "https://guide.michelin.com/us/en/california/san-francisco/restaurant/spqr","star": "1"}
{"index":{"_index":"michelin"}} 
{"name": "Lord Stanley","year": "2019", "pin":{"location":{"lat": "37.79592","lon": "-122.42208"}}, "city": "San Francisco","region": "California","zipCode": "94109","cuisine": "Californian","price": "$$$","url": "https://guide.michelin.com/us/en/california/san-francisco/restaurant/lord-stanley","star": "1"}
{"index":{"_index":"michelin"}} 
{"name": "Kinjo","year": "2019", "pin":{"location":{"lat": "37.79699","lon": "-122.422005"}}, "city": "San Francisco","region": "California","zipCode": "94109","cuisine": "Japanese","price": "$$$$","url": "https://guide.michelin.com/us/en/california/san-francisco/restaurant/kinjo","star": "1"}
{"index":{"_index":"michelin"}} 
{"name": "Sorrel","year": "2019", "pin":{"location":{"lat": "37.788334","lon": "-122.44614"}}, "city": "San Francisco","region": "California","zipCode": "94101","cuisine": "Californian","price": "$$$","url": "https://guide.michelin.com/us/en/california/san-francisco/restaurant/sorrel","star": "1"}
{"index":{"_index":"michelin"}} 
{"name": "Gary Danko","year": "2019", "pin":{"location":{"lat": "37.80599","lon": "-122.42066"}}, "city": "San Francisco","region": "California","zipCode": "94109","cuisine": "Contemporary","price": "$$$$","url": "https://guide.michelin.com/us/en/california/san-francisco/restaurant/gary-danko","star": "1"}
{"index":{"_index":"michelin"}} 
{"name": "Bar Crenn","year": "2019", "pin":{"location":{"lat": "37.798435","lon": "-122.43581"}}, "city": "San Francisco","region": "California","zipCode": "94101","cuisine": "French","price": "$$$","url": "https://guide.michelin.com/us/en/california/san-francisco/restaurant/bar-crenn","star": "1"}
{"index":{"_index":"michelin"}} 
{"name": "Spruce","year": "2019", "pin":{"location":{"lat": "37.78772","lon": "-122.45264"}}, "city": "San Francisco","region": "California","zipCode": "94118","cuisine": "Californian","price": "$$$","url": "https://guide.michelin.com/us/en/california/san-francisco/restaurant/spruce","star": "1"}
{"index":{"_index":"michelin"}} 
{"name": "Wako","year": "2019", "pin":{"location":{"lat": "37.783035","lon": "-122.461525"}}, "city": "San Francisco","region": "California","zipCode": "94118","cuisine": "Japanese","price": "$$$$","url": "https://guide.michelin.com/us/en/california/san-francisco/restaurant/wako","star": "1"}
{"index":{"_index":"michelin"}} 
{"name": "Madcap","year": "2019", "pin":{"location":{"lat": "37.974712","lon": "-122.56168"}}, "city": "San Francisco","region": "California","zipCode": "94960","cuisine": "Contemporary","price": "$$$$","url": "https://guide.michelin.com/us/en/california/san-francisco/restaurant/madcap","star": "1"}
{"index":{"_index":"michelin"}} 
{"name": "Aubergine","year": "2019", "pin":{"location":{"lat": "36.55406","lon": "-121.924355"}}, "city": "Monterey","region": "California","zipCode": "93921","cuisine": "Contemporary","price": "$$$$","url": "https://guide.michelin.com/us/en/california/monterey/restaurant/aubergine","star": "1"}
{"index":{"_index":"michelin"}} 
{"name": "Kenzo","year": "2019", "pin":{"location":{"lat": "38.29924","lon": "-122.28928"}}, "city": "San Francisco","region": "California","zipCode": "94559","cuisine": "Japanese","price": "$$$$","url": "https://guide.michelin.com/us/en/california/san-francisco/restaurant/kenzo","star": "1"}
{"index":{"_index":"michelin"}} 
{"name": "La Toque","year": "2019", "pin":{"location":{"lat": "38.30351","lon": "-122.28349"}}, "city": "San Francisco","region": "California","zipCode": "94573","cuisine": "Contemporary","price": "$$$$","url": "https://guide.michelin.com/us/en/california/san-francisco/restaurant/la-toque","star": "1"}
{"index":{"_index":"michelin"}} 
{"name": "Bouchon","year": "2019", "pin":{"location":{"lat": "38.40258","lon": "-122.3619"}}, "city": "San Francisco","region": "California","zipCode": "94599","cuisine": "French","price": "$$$","url": "https://guide.michelin.com/us/en/california/san-francisco/restaurant/bouchon","star": "1"}
{"index":{"_index":"michelin"}} 
{"name": "Auberge du Soleil","year": "2019", "pin":{"location":{"lat": "38.49199","lon": "-122.40534"}}, "city": "San Francisco","region": "California","zipCode": "94573","cuisine": "Californian","price": "$$$$","url": "https://guide.michelin.com/us/en/california/san-francisco/restaurant/auberge-du-soleil","star": "1"}
{"index":{"_index":"michelin"}} 
{"name": "Farmhouse Inn & Restaurant","year": "2019", "pin":{"location":{"lat": "38.49039","lon": "-122.8835"}}, "city": "San Francisco","region": "California","zipCode": "95436","cuisine": "Californian","price": "$$$$","url": "https://guide.michelin.com/us/en/california/san-francisco/restaurant/farmhouse-inn-restaurant","star": "1"}
{"index":{"_index":"michelin"}} 
{"name": "The Kitchen","year": "2019", "pin":{"location":{"lat": "38.58894","lon": "-121.41424"}}, "city": "Sacramento","region": "California","zipCode": "95825","cuisine": "Contemporary","price": "$$$$","url": "https://guide.michelin.com/us/en/california/us-sacramento/restaurant/the-kitchen559371","star": "1"}
{"index":{"_index":"michelin"}} 
{"name": "Madrona Manor","year": "2019", "pin":{"location":{"lat": "38.60428","lon": "-122.88647"}}, "city": "San Francisco","region": "California","zipCode": "95448","cuisine": "Contemporary","price": "$$$$","url": "https://guide.michelin.com/us/en/california/san-francisco/restaurant/madrona-manor","star": "1"}
{"index":{"_index":"michelin"}} 
{"name": "Harbor House","year": "2019", "pin":{"location":{"lat": "39.135876","lon": "-123.719444"}}, "city": "San Francisco","region": "California","zipCode": "N/A","cuisine": "Californian","price": "$$$$","url": "https://guide.michelin.com/us/en/california/san-francisco/restaurant/harbor-house","star": "1"}
{"index":{"_index":"michelin"}} 
{"name": "Shin Sushi","year": "2019", "pin":{"location":{"lat": "34.15784","lon": "-118.49415"}}, "city": "Los Angeles","region": "California","zipCode": "91436","cuisine": "Japanese","price": "$$$","url": "https://guide.michelin.com/us/en/california/us-los-angeles/restaurant/shin-sushi","star": "1"}
{"index":{"_index":"michelin"}} 
{"name": "Rustic Canyon","year": "2019", "pin":{"location":{"lat": "34.024952","lon": "-118.49118"}}, "city": "Los Angeles","region": "California","zipCode": "90401","cuisine": "Californian","price": "$$$","url": "https://guide.michelin.com/us/en/california/us-los-angeles/restaurant/rustic-canyon","star": "1"}
{"index":{"_index":"michelin"}} 
{"name": "Dialogue","year": "2019", "pin":{"location":{"lat": "34.01679","lon": "-118.49748"}}, "city": "Los Angeles","region": "California","zipCode": "90401","cuisine": "Contemporary","price": "$$$$","url": "https://guide.michelin.com/us/en/california/us-los-angeles/restaurant/dialogue","star": "1"}
{"index":{"_index":"michelin"}} 
{"name": "Kato","year": "2019", "pin":{"location":{"lat": "34.041683","lon": "-118.460915"}}, "city": "Los Angeles","region": "California","zipCode": "90025","cuisine": "Asian","price": "$$$","url": "https://guide.michelin.com/us/en/california/us-los-angeles/restaurant/kato","star": "1"}
{"index":{"_index":"michelin"}} 
{"name": "CUT","year": "2019", "pin":{"location":{"lat": "34.067036","lon": "-118.401024"}}, "city": "Los Angeles","region": "California","zipCode": "90212","cuisine": "Steakhouse","price": "$$$$","url": "https://guide.michelin.com/us/en/california/us-los-angeles/restaurant/cut559418","star": "1"}
{"index":{"_index":"michelin"}} 
{"name": "Nozawa Bar","year": "2019", "pin":{"location":{"lat": "34.0683","lon": "-118.39849"}}, "city": "Los Angeles","region": "California","zipCode": "90210","cuisine": "Japanese","price": "$$$$","url": "https://guide.michelin.com/us/en/california/us-los-angeles/restaurant/nozawa-bar","star": "1"}
{"index":{"_index":"michelin"}} 
{"name": "Shunji","year": "2019", "pin":{"location":{"lat": "34.028496","lon": "-118.45195"}}, "city": "Los Angeles","region": "California","zipCode": "90064","cuisine": "Japanese","price": "$$$$","url": "https://guide.michelin.com/us/en/california/us-los-angeles/restaurant/shunji","star": "1"}
{"index":{"_index":"michelin"}} 
{"name": "Maude","year": "2019", "pin":{"location":{"lat": "34.064346","lon": "-118.39904"}}, "city": "Los Angeles","region": "California","zipCode": "90212","cuisine": "Contemporary","price": "$$$$","url": "https://guide.michelin.com/us/en/california/us-los-angeles/restaurant/maude","star": "1"}
{"index":{"_index":"michelin"}} 
{"name": "Mori Sushi","year": "2019", "pin":{"location":{"lat": "34.033398","lon": "-118.44229"}}, "city": "Los Angeles","region": "California","zipCode": "90064","cuisine": "Japanese","price": "$$$$","url": "https://guide.michelin.com/us/en/california/us-los-angeles/restaurant/mori-sushi","star": "1"}
{"index":{"_index":"michelin"}} 
{"name": "Trois Mec","year": "2019", "pin":{"location":{"lat": "34.084255","lon": "-118.33851"}}, "city": "Los Angeles","region": "California","zipCode": "90028","cuisine": "Contemporary","price": "$$$$","url": "https://guide.michelin.com/us/en/california/us-los-angeles/restaurant/trois-mec","star": "1"}
{"index":{"_index":"michelin"}} 
{"name": "Osteria Mozza","year": "2019", "pin":{"location":{"lat": "34.08342","lon": "-118.338974"}}, "city": "Los Angeles","region": "California","zipCode": "90028","cuisine": "Italian","price": "$$$","url": "https://guide.michelin.com/us/en/california/us-los-angeles/restaurant/osteria-mozza","star": "1"}
{"index":{"_index":"michelin"}} 
{"name": "Kali","year": "2019", "pin":{"location":{"lat": "34.083443","lon": "-118.32455"}}, "city": "Los Angeles","region": "California","zipCode": "90028","cuisine": "Californian","price": "$$$","url": "https://guide.michelin.com/us/en/california/us-los-angeles/restaurant/kali","star": "1"}
{"index":{"_index":"michelin"}} 
{"name": "Le Comptoir","year": "2019", "pin":{"location":{"lat": "34.06354","lon": "-118.30057"}}, "city": "Los Angeles","region": "California","zipCode": "90020","cuisine": "Californian","price": "$$$$","url": "https://guide.michelin.com/us/en/california/us-los-angeles/restaurant/le-comptoir","star": "1"}
{"index":{"_index":"michelin"}} 
{"name": "Q Sushi","year": "2019", "pin":{"location":{"lat": "34.046883","lon": "-118.255844"}}, "city": "Los Angeles","region": "California","zipCode": "90017","cuisine": "Japanese","price": "$$$$","url": "https://guide.michelin.com/us/en/california/us-los-angeles/restaurant/q-sushi","star": "1"}
{"index":{"_index":"michelin"}} 
{"name": "Shibumi","year": "2019", "pin":{"location":{"lat": "34.044155","lon": "-118.256134"}}, "city": "Los Angeles","region": "California","zipCode": "90014","cuisine": "Japanese","price": "$$$$","url": "https://guide.michelin.com/us/en/california/us-los-angeles/restaurant/shibumi559644","star": "1"}
{"index":{"_index":"michelin"}} 
{"name": "Hayato","year": "2019", "pin":{"location":{"lat": "34.03311","lon": "-118.24265"}}, "city": "Los Angeles","region": "California","zipCode": "90001","cuisine": "Japanese","price": "$$$$","url": "https://guide.michelin.com/us/en/california/us-los-angeles/restaurant/hayato","star": "1"}
{"index":{"_index":"michelin"}} 
{"name": "Bistro Na's","year": "2019", "pin":{"location":{"lat": "34.104412","lon": "-118.07159"}}, "city": "Los Angeles","region": "California","zipCode": "91780","cuisine": "Chinese","price": "$$","url": "https://guide.michelin.com/us/en/california/us-los-angeles/restaurant/bistro-na-s","star": "1"}
{"index":{"_index":"michelin"}} 
{"name": "Orsa & Winston","year": "2019", "pin":{"location":{"lat": "33.92145","lon": "-118.275406"}}, "city": "Los Angeles","region": "California","zipCode": "90013","cuisine": "Fusion","price": "$$$$","url": "https://guide.michelin.com/us/en/california/us-los-angeles/restaurant/orsa-winston","star": "1"}
{"index":{"_index":"michelin"}} 
{"name": "Taco María","year": "2019", "pin":{"location":{"lat": "33.69475","lon": "-117.924965"}}, "city": "Costa Mesa","region": "California","zipCode": "92626","cuisine": "Mexican","price": "$$$","url": "https://guide.michelin.com/us/en/california/us-costa-mesa/restaurant/taco-maria","star": "1"}
{"index":{"_index":"michelin"}} 
{"name": "Hana re","year": "2019", "pin":{"location":{"lat": "33.67759","lon": "-117.886566"}}, "city": "Costa Mesa","region": "California","zipCode": "92626","cuisine": "Japanese","price": "$$$$","url": "https://guide.michelin.com/us/en/california/us-costa-mesa/restaurant/hana-re","star": "1"}
{"index":{"_index":"michelin"}} 
{"name": "Addison","year": "2019", "pin":{"location":{"lat": "32.939903","lon": "-117.20013"}}, "city": "San Diego","region": "California","zipCode": "92130","cuisine": "Contemporary","price": "$$$$","url": "https://guide.michelin.com/us/en/california/us-san-diego/restaurant/addison","star": "1"}
{"index":{"_index":"michelin"}} 
{"name": "Parachute","year": "2019", "pin":{"location":{"lat": "41.94483","lon": "-87.70638"}}, "city": "Chicago","region": "Chicago","zipCode": "60618","cuisine": "Fusion","price": "$$","url": "https://guide.michelin.com/us/en/illinois/chicago/restaurant/parachute","star": "1"}
{"index":{"_index":"michelin"}} 
{"name": "Goosefoot","year": "2019", "pin":{"location":{"lat": "41.96856","lon": "-87.69596"}}, "city": "Chicago","region": "Chicago","zipCode": "60625","cuisine": "Contemporary","price": "$$$$","url": "https://guide.michelin.com/us/en/illinois/chicago/restaurant/goosefoot","star": "1"}
{"index":{"_index":"michelin"}} 
{"name": "Elizabeth","year": "2019", "pin":{"location":{"lat": "41.969555","lon": "-87.688736"}}, "city": "Chicago","region": "Chicago","zipCode": "60625","cuisine": "Contemporary","price": "$$$$","url": "https://guide.michelin.com/us/en/illinois/chicago/restaurant/elizabeth","star": "1"}
{"index":{"_index":"michelin"}} 
{"name": "EL Ideas","year": "2019", "pin":{"location":{"lat": "41.863","lon": "-87.68686"}}, "city": "Chicago","region": "Chicago","zipCode": "60618","cuisine": "Contemporary","price": "$$$$","url": "https://guide.michelin.com/us/en/illinois/chicago/restaurant/el-ideas","star": "1"}
{"index":{"_index":"michelin"}} 
{"name": "Band of Bohemia","year": "2019", "pin":{"location":{"lat": "41.967308","lon": "-87.67477"}}, "city": "Chicago","region": "Chicago","zipCode": "60640","cuisine": "Gastropub","price": "$$$","url": "https://guide.michelin.com/us/en/illinois/chicago/restaurant/band-of-bohemia","star": "1"}
{"index":{"_index":"michelin"}} 
{"name": "Schwa","year": "2019", "pin":{"location":{"lat": "41.90888","lon": "-87.66792"}}, "city": "Chicago","region": "Chicago","zipCode": "60662","cuisine": "Contemporary","price": "$$$$","url": "https://guide.michelin.com/us/en/illinois/chicago/restaurant/schwa","star": "1"}
{"index":{"_index":"michelin"}} 
{"name": "Temporis","year": "2019", "pin":{"location":{"lat": "41.898907","lon": "-87.66725"}}, "city": "Chicago","region": "Chicago","zipCode": "N/A","cuisine": "Contemporary","price": "$$$$","url": "https://guide.michelin.com/us/en/illinois/chicago/restaurant/temporis","star": "1"}
{"index":{"_index":"michelin"}} 
{"name": "Entente","year": "2019", "pin":{"location":{"lat": "41.93721","lon": "-87.6652"}}, "city": "Chicago","region": "Chicago","zipCode": "60657","cuisine": "Contemporary","price": "$$$","url": "https://guide.michelin.com/us/en/illinois/chicago/restaurant/entente","star": "1"}
{"index":{"_index":"michelin"}} 
{"name": "Elske","year": "2019", "pin":{"location":{"lat": "41.884426","lon": "-87.66071"}}, "city": "Chicago","region": "Chicago","zipCode": "60607","cuisine": "Contemporary","price": "$$$$","url": "https://guide.michelin.com/us/en/illinois/chicago/restaurant/elske","star": "1"}
{"index":{"_index":"michelin"}} 
{"name": "Dusek's (Board & Beer)","year": "2019", "pin":{"location":{"lat": "41.857853","lon": "-87.65757"}}, "city": "Chicago","region": "Chicago","zipCode": "60608","cuisine": "Gastropub","price": "$$","url": "https://guide.michelin.com/us/en/illinois/chicago/restaurant/dusek-s-board-beer","star": "1"}
{"index":{"_index":"michelin"}} 
{"name": "Roister","year": "2019", "pin":{"location":{"lat": "41.886658","lon": "-87.65187"}}, "city": "Chicago","region": "Chicago","zipCode": "60607","cuisine": "Contemporary","price": "$$$","url": "https://guide.michelin.com/us/en/illinois/chicago/restaurant/roister","star": "1"}
{"index":{"_index":"michelin"}} 
{"name": "Boka","year": "2019", "pin":{"location":{"lat": "41.91363","lon": "-87.64806"}}, "city": "Chicago","region": "Chicago","zipCode": "60614","cuisine": "Contemporary","price": "$$$","url": "https://guide.michelin.com/us/en/illinois/chicago/restaurant/boka","star": "1"}
{"index":{"_index":"michelin"}} 
{"name": "Blackbird","year": "2019", "pin":{"location":{"lat": "41.88423","lon": "-87.64356"}}, "city": "Chicago","region": "Chicago","zipCode": "60661","cuisine": "Contemporary","price": "$$$","url": "https://guide.michelin.com/us/en/illinois/chicago/restaurant/blackbird","star": "1"}
{"index":{"_index":"michelin"}} 
{"name": "Sepia","year": "2019", "pin":{"location":{"lat": "41.88394","lon": "-87.64247"}}, "city": "Chicago","region": "Chicago","zipCode": "60661","cuisine": "American","price": "$$$","url": "https://guide.michelin.com/us/en/illinois/chicago/restaurant/sepia","star": "1"}
{"index":{"_index":"michelin"}} 
{"name": "North Pond","year": "2019", "pin":{"location":{"lat": "41.9296","lon": "-87.63762"}}, "city": "Chicago","region": "Chicago","zipCode": "60614","cuisine": "Contemporary","price": "$$$","url": "https://guide.michelin.com/us/en/illinois/chicago/restaurant/north-pond","star": "1"}
{"index":{"_index":"michelin"}} 
{"name": "Everest","year": "2019", "pin":{"location":{"lat": "41.87597","lon": "-87.63212"}}, "city": "Chicago","region": "Chicago","zipCode": "60605","cuisine": "French","price": "$$$$","url": "https://guide.michelin.com/us/en/illinois/chicago/restaurant/everest","star": "1"}
{"index":{"_index":"michelin"}} 
{"name": "Topolobampo","year": "2019", "pin":{"location":{"lat": "41.89047","lon": "-87.63085"}}, "city": "Chicago","region": "Chicago","zipCode": "60654","cuisine": "Mexican","price": "$$$$","url": "https://guide.michelin.com/us/en/illinois/chicago/restaurant/topolobampo","star": "1"}
{"index":{"_index":"michelin"}} 
{"name": "Spiaggia","year": "2019", "pin":{"location":{"lat": "41.90062","lon": "-87.62457"}}, "city": "Chicago","region": "Chicago","zipCode": "60611","cuisine": "Italian","price": "$$$$","url": "https://guide.michelin.com/us/en/illinois/chicago/restaurant/spiaggia","star": "1"}
{"index":{"_index":"michelin"}} 
{"name": "Monte","year": "2019", "pin":{"location":{"lat": "45.08279","lon": "13.631168"}}, "city": "Rovinj","region": "Croatia","zipCode": "52210","cuisine": "Creative","price": "$$$$$","url": "https://guide.michelin.com/hr/en/istria/rovinj/restaurant/monte","star": "1"}
{"index":{"_index":"michelin"}} 
{"name": "Draga di Lovrana","year": "2019", "pin":{"location":{"lat": "45.275867","lon": "14.251401"}}, "city": "Lovran","region": "Croatia","zipCode": "51415","cuisine": "Modern cuisine","price": "$$$$$","url": "https://guide.michelin.com/hr/en/primorje-gorski-kotar/lovran/restaurant/draga-di-lovrana","star": "1"}
{"index":{"_index":"michelin"}} 
{"name": "Noel","year": "2019", "pin":{"location":{"lat": "45.811054","lon": "15.988205"}}, "city": "Zagreb","region": "Croatia","zipCode": "10000","cuisine": "Modern cuisine","price": "$$$$$","url": "https://guide.michelin.com/hr/en/zagreb-region/zagreb/restaurant/noel","star": "1"}
{"index":{"_index":"michelin"}} 
{"name": "Pelegrini","year": "2019", "pin":{"location":{"lat": "43.73603","lon": "15.888903"}}, "city": "Šibenik","region": "Croatia","zipCode": "22000","cuisine": "Modern cuisine","price": "$$$$$","url": "https://guide.michelin.com/hr/en/sibenik-knin/sibenik/restaurant/pelegrini","star": "1"}
{"index":{"_index":"michelin"}} 
{"name": "360º","year": "2019", "pin":{"location":{"lat": "42.641563","lon": "18.111523"}}, "city": "Dubrovnik","region": "Croatia","zipCode": "20000","cuisine": "Modern cuisine","price": "$$$$$","url": "https://guide.michelin.com/hr/en/dubrovnik-neretva/dubrovnik/restaurant/360%C2%BA","star": "1"}
{"index":{"_index":"michelin"}} 
{"name": "Field","year": "2019", "pin":{"location":{"lat": "50.0919","lon": "14.42193"}}, "city": "Praha","region": "Czech Republic","zipCode": "110 00","cuisine": "Modern cuisine","price": "$$$$$","url": "https://guide.michelin.com/cz/en/prague/praha/restaurant/field","star": "1"}
{"index":{"_index":"michelin"}} 
{"name": "La Degustation Bohême Bourgeoise","year": "2019", "pin":{"location":{"lat": "50.09115","lon": "14.42511"}}, "city": "Praha","region": "Czech Republic","zipCode": "110 00","cuisine": "Modern cuisine","price": "$$$$$","url": "https://guide.michelin.com/cz/en/prague/praha/restaurant/la-degustation-boheme-bourgeoise","star": "1"}
{"index":{"_index":"michelin"}} 
{"name": "Gastromé","year": "2019", "pin":{"location":{"lat": "56.15788","lon": "10.20937"}}, "city": "Aarhus","region": "Denmark","zipCode": "8000","cuisine": "Modern cuisine","price": "$$$","url": "https://guide.michelin.com/dk/en/central-denmark/aarhus/restaurant/gastrome","star": "1"}
{"index":{"_index":"michelin"}} 
{"name": "Domestic","year": "2019", "pin":{"location":{"lat": "56.15893","lon": "10.212132"}}, "city": "Aarhus","region": "Denmark","zipCode": "8000","cuisine": "Modern cuisine","price": "$$$","url": "https://guide.michelin.com/dk/en/central-denmark/aarhus/restaurant/domestic","star": "1"}
{"index":{"_index":"michelin"}} 
{"name": "Substans","year": "2019", "pin":{"location":{"lat": "56.15415","lon": "10.20372"}}, "city": "Aarhus","region": "Denmark","zipCode": "8000","cuisine": "Modern cuisine","price": "$$$","url": "https://guide.michelin.com/dk/en/central-denmark/aarhus/restaurant/substans","star": "1"}
{"index":{"_index":"michelin"}} 
{"name": "Frederikshøj","year": "2019", "pin":{"location":{"lat": "56.12497","lon": "10.208638"}}, "city": "Aarhus","region": "Denmark","zipCode": "8000","cuisine": "Creative","price": "$$$$","url": "https://guide.michelin.com/dk/en/central-denmark/aarhus/restaurant/frederikshoj","star": "1"}
{"index":{"_index":"michelin"}} 
{"name": "Me‚Mu","year": "2019", "pin":{"location":{"lat": "55.70901","lon": "9.53302"}}, "city": "Vejle","region": "Denmark","zipCode": "7100","cuisine": "Modern cuisine","price": "$$$","url": "https://guide.michelin.com/dk/en/vejle/restaurant/me%E2%80%9Amu","star": "1"}
{"index":{"_index":"michelin"}} 
{"name": "Ti Trin Ned","year": "2019", "pin":{"location":{"lat": "55.56659","lon": "9.752689"}}, "city": "Fredericia","region": "Denmark","zipCode": "7000","cuisine": "Modern cuisine","price": "$$$","url": "https://guide.michelin.com/dk/en/southern-denmark/fredericia/restaurant/ti-trin-ned","star": "1"}
{"index":{"_index":"michelin"}} 
{"name": "Slotskøkkenet","year": "2019", "pin":{"location":{"lat": "55.771236","lon": "11.390805"}}, "city": "Hørve","region": "Denmark","zipCode": "4534","cuisine": "Creative","price": "$$$$","url": "https://guide.michelin.com/dk/en/zealand/horve/restaurant/slotskokkenet","star": "1"}
{"index":{"_index":"michelin"}} 
{"name": "Søllerød Kro","year": "2019", "pin":{"location":{"lat": "55.81325","lon": "12.49548"}}, "city": "København","region": "Denmark","zipCode": "2840","cuisine": "Modern cuisine","price": "$$","url": "https://guide.michelin.com/dk/en/capital-region/kobenhavn/restaurant/sollerod-kro","star": "1"}
{"index":{"_index":"michelin"}} 
{"name": "Jordnær","year": "2019", "pin":{"location":{"lat": "55.748226","lon": "12.541014"}}, "city": "København","region": "Denmark","zipCode": "2820","cuisine": "Danish","price": "$$$","url": "https://guide.michelin.com/dk/en/capital-region/kobenhavn/restaurant/jordnaer","star": "1"}
{"index":{"_index":"michelin"}} 
{"name": "Relæ","year": "2019", "pin":{"location":{"lat": "55.693233","lon": "12.543222"}}, "city": "København","region": "Denmark","zipCode": "2200 N","cuisine": "Modern cuisine","price": "$$","url": "https://guide.michelin.com/dk/en/capital-region/kobenhavn/restaurant/relae","star": "1"}
{"index":{"_index":"michelin"}} 
{"name": "Kiin Kiin","year": "2019", "pin":{"location":{"lat": "55.69188","lon": "12.55754"}}, "city": "København","region": "Denmark","zipCode": "2200 N","cuisine": "Thai","price": "$$","url": "https://guide.michelin.com/dk/en/capital-region/kobenhavn/restaurant/kiin-kiin","star": "1"}
{"index":{"_index":"michelin"}} 
{"name": "formel B","year": "2019", "pin":{"location":{"lat": "55.67031","lon": "12.53798"}}, "city": "København","region": "Denmark","zipCode": "1800 C","cuisine": "Modern cuisine","price": "$$","url": "https://guide.michelin.com/dk/en/capital-region/kobenhavn/restaurant/formel-b","star": "1"}
{"index":{"_index":"michelin"}} 
{"name": "Kokkeriet","year": "2019", "pin":{"location":{"lat": "55.68768","lon": "12.58492"}}, "city": "København","region": "Denmark","zipCode": "1306 K","cuisine": "Modern cuisine","price": "$$$","url": "https://guide.michelin.com/dk/en/capital-region/kobenhavn/restaurant/kokkeriet","star": "1"}
{"index":{"_index":"michelin"}} 
{"name": "Clou","year": "2019", "pin":{"location":{"lat": "55.68342","lon": "12.58497"}}, "city": "København","region": "Denmark","zipCode": "2100 K","cuisine": "Modern cuisine","price": "$$$$","url": "https://guide.michelin.com/dk/en/capital-region/kobenhavn/restaurant/clou","star": "1"}
{"index":{"_index":"michelin"}} 
{"name": "Marchal","year": "2019", "pin":{"location":{"lat": "55.68034","lon": "12.58508"}}, "city": "København","region": "Denmark","zipCode": "1050 K","cuisine": "Modern cuisine","price": "$$","url": "https://guide.michelin.com/dk/en/capital-region/kobenhavn/restaurant/marchal","star": "1"}
{"index":{"_index":"michelin"}} 
{"name": "Kong Hans Kælder","year": "2019", "pin":{"location":{"lat": "55.6787","lon": "12.584003"}}, "city": "København","region": "Denmark","zipCode": "1070 K","cuisine": "Classic French","price": "$$$$","url": "https://guide.michelin.com/dk/en/capital-region/kobenhavn/restaurant/kong-hans-kaelder","star": "1"}
{"index":{"_index":"michelin"}} 
{"name": "Stud!o at The Standard","year": "2019", "pin":{"location":{"lat": "55.67799","lon": "12.59191"}}, "city": "København","region": "Denmark","zipCode": "1058 K","cuisine": "Creative","price": "$$$","url": "https://guide.michelin.com/dk/en/capital-region/kobenhavn/restaurant/stud-o-at-the-standard","star": "1"}
{"index":{"_index":"michelin"}} 
{"name": "108","year": "2019", "pin":{"location":{"lat": "55.67785","lon": "12.5980835"}}, "city": "København","region": "Denmark","zipCode": "1401 K","cuisine": "Modern cuisine","price": "$$$","url": "https://guide.michelin.com/dk/en/capital-region/kobenhavn/restaurant/108","star": "1"}
{"index":{"_index":"michelin"}} 
{"name": "Era Ora","year": "2019", "pin":{"location":{"lat": "55.673004","lon": "12.591292"}}, "city": "København","region": "Denmark","zipCode": "1414 K","cuisine": "Italian","price": "$$","url": "https://guide.michelin.com/dk/en/capital-region/kobenhavn/restaurant/era-ora","star": "1"}
{"index":{"_index":"michelin"}} 
{"name": "Alouette","year": "2019", "pin":{"location":{"lat": "55.66265","lon": "12.57634"}}, "city": "København","region": "Denmark","zipCode": "2300 S","cuisine": "Modern cuisine","price": "$$$","url": "https://guide.michelin.com/dk/en/capital-region/kobenhavn/restaurant/alouette","star": "1"}
{"index":{"_index":"michelin"}} 
{"name": "Frederiksminde","year": "2019", "pin":{"location":{"lat": "55.12417","lon": "12.04623"}}, "city": "Præstø","region": "Denmark","zipCode": "4720","cuisine": "Creative","price": "$$$","url": "https://guide.michelin.com/dk/en/zealand/praesto/restaurant/frederiksminde","star": "1"}
{"index":{"_index":"michelin"}} 
{"name": "Kadeau Bornholm","year": "2019", "pin":{"location":{"lat": "55.00457","lon": "14.969216"}}, "city": "Pedersker","region": "Denmark","zipCode": "3720","cuisine": "Creative","price": "$$$$","url": "https://guide.michelin.com/dk/en/capital-region/pedersker/restaurant/kadeau-bornholm","star": "1"}
{"index":{"_index":"michelin"}} 
{"name": "Ask","year": "2019", "pin":{"location":{"lat": "60.17236","lon": "24.95648"}}, "city": "Helsingfors / Helsinki","region": "Finland","zipCode": "170","cuisine": "Modern cuisine","price": "$$$","url": "https://guide.michelin.com/fi/en/uusimaa/helsingfors-helsinki/restaurant/ask","star": "1"}
{"index":{"_index":"michelin"}} 
{"name": "Grön","year": "2019", "pin":{"location":{"lat": "60.16446","lon": "24.93308"}}, "city": "Helsingfors / Helsinki","region": "Finland","zipCode": "180","cuisine": "Finnish","price": "$$$","url": "https://guide.michelin.com/fi/en/uusimaa/helsingfors-helsinki/restaurant/gron","star": "1"}
{"index":{"_index":"michelin"}} 
{"name": "Demo","year": "2019", "pin":{"location":{"lat": "60.164806","lon": "24.941635"}}, "city": "Helsingfors / Helsinki","region": "Finland","zipCode": "120","cuisine": "Modern cuisine","price": "$$$","url": "https://guide.michelin.com/fi/en/uusimaa/helsingfors-helsinki/restaurant/demo","star": "1"}
{"index":{"_index":"michelin"}} 
{"name": "Olo","year": "2019", "pin":{"location":{"lat": "60.16616","lon": "24.947704"}}, "city": "Helsingfors / Helsinki","region": "Finland","zipCode": "170","cuisine": "Modern cuisine","price": "$$$","url": "https://guide.michelin.com/fi/en/uusimaa/helsingfors-helsinki/restaurant/olo","star": "1"}
{"index":{"_index":"michelin"}} 
{"name": "Palace","year": "2019", "pin":{"location":{"lat": "60.16556","lon": "24.95256"}}, "city": "Helsingfors / Helsinki","region": "Finland","zipCode": "130","cuisine": "Modern cuisine","price": "$$$","url": "https://guide.michelin.com/fi/en/uusimaa/helsingfors-helsinki/restaurant/palace","star": "1"}
{"index":{"_index":"michelin"}} 
{"name": "Ora","year": "2019", "pin":{"location":{"lat": "60.157578","lon": "24.942947"}}, "city": "Helsingfors / Helsinki","region": "Finland","zipCode": "150","cuisine": "Modern cuisine","price": "$$$","url": "https://guide.michelin.com/fi/en/uusimaa/helsingfors-helsinki/restaurant/ora","star": "1"}
{"index":{"_index":"michelin"}} 
{"name": "Botrini's","year": "2019", "pin":{"location":{"lat": "38.02318","lon": "23.79377"}}, "city": "Athína","region": "Greece","zipCode": "152 33","cuisine": "Mediterranean","price": "$$$$$","url": "https://guide.michelin.com/gr/en/attica/athina/restaurant/botrini-s","star": "1"}
{"index":{"_index":"michelin"}} 
{"name": "Varoulko Seaside","year": "2019", "pin":{"location":{"lat": "37.937378","lon": "23.658577"}}, "city": "Athína","region": "Greece","zipCode": "185 33","cuisine": "Seafood","price": "$$$$$","url": "https://guide.michelin.com/gr/en/attica/athina/restaurant/varoulko-seaside","star": "1"}
{"index":{"_index":"michelin"}} 
{"name": "Hytra","year": "2019", "pin":{"location":{"lat": "37.95818","lon": "23.71895"}}, "city": "Athína","region": "Greece","zipCode": "11745","cuisine": "Modern cuisine","price": "$$$$$","url": "https://guide.michelin.com/gr/en/attica/athina/restaurant/hytra","star": "1"}
{"index":{"_index":"michelin"}} 
{"name": "Loaf On","year": "2019", "pin":{"location":{"lat": "22.379858","lon": "114.27188"}}, "city": "Hong Kong","region": "Hong Kong","zipCode": "N/A","cuisine": "Cantonese","price": "$$","url": "https://guide.michelin.com/hk/en/hong-kong-region/hong-kong/restaurant/loaf-on","star": "1"}
{"index":{"_index":"michelin"}} 
{"name": "Lei Garden (Kwun Tong)","year": "2019", "pin":{"location":{"lat": "22.312672","lon": "114.22482"}}, "city": "Hong Kong","region": "Hong Kong","zipCode": "N/A","cuisine": "Cantonese","price": "$","url": "https://guide.michelin.com/hk/en/hong-kong-region/hong-kong/restaurant/lei-garden-kwun-tong","star": "1"}
{"index":{"_index":"michelin"}} 
{"name": "Tim Ho Wan (Sham Shui Po)","year": "2019", "pin":{"location":{"lat": "22.32805","lon": "114.16665"}}, "city": "Hong Kong","region": "Hong Kong","zipCode": "N/A","cuisine": "Dim Sum","price": "$","url": "https://guide.michelin.com/hk/en/hong-kong-region/hong-kong/restaurant/tim-ho-wan-sham-shui-po","star": "1"}
{"index":{"_index":"michelin"}} 
{"name": "Lei Garden (Mong Kok)","year": "2019", "pin":{"location":{"lat": "22.320219","lon": "114.17133"}}, "city": "Hong Kong","region": "Hong Kong","zipCode": "N/A","cuisine": "Cantonese","price": "$","url": "https://guide.michelin.com/hk/en/hong-kong-region/hong-kong/restaurant/lei-garden-mong-kok","star": "1"}
{"index":{"_index":"michelin"}} 
{"name": "Ming Court","year": "2019", "pin":{"location":{"lat": "22.318314","lon": "114.16933"}}, "city": "Hong Kong","region": "Hong Kong","zipCode": "N/A","cuisine": "Cantonese","price": "$$$","url": "https://guide.michelin.com/hk/en/hong-kong-region/hong-kong/restaurant/ming-court","star": "1"}
{"index":{"_index":"michelin"}} 
{"name": "Yat Tung Heen (Jordan)","year": "2019", "pin":{"location":{"lat": "22.308014","lon": "114.17147"}}, "city": "Hong Kong","region": "Hong Kong","zipCode": "N/A","cuisine": "Cantonese","price": "$$","url": "https://guide.michelin.com/hk/en/hong-kong-region/hong-kong/restaurant/yat-tung-heen-jordan","star": "1"}
{"index":{"_index":"michelin"}} 
{"name": "Fu Ho (Tsim Sha Tsui)","year": "2019", "pin":{"location":{"lat": "22.3022","lon": "114.17194"}}, "city": "Hong Kong","region": "Hong Kong","zipCode": "N/A","cuisine": "Cantonese","price": "$$","url": "https://guide.michelin.com/hk/en/hong-kong-region/hong-kong/restaurant/fu-ho-tsim-sha-tsui","star": "1"}
{"index":{"_index":"michelin"}} 
{"name": "Shang Palace","year": "2019", "pin":{"location":{"lat": "22.297325","lon": "114.177155"}}, "city": "Hong Kong","region": "Hong Kong","zipCode": "N/A","cuisine": "Cantonese","price": "$$$","url": "https://guide.michelin.com/hk/en/hong-kong-region/hong-kong/restaurant/shang-palace","star": "1"}
{"index":{"_index":"michelin"}} 
{"name": "IM Teppanyaki & Wine","year": "2019", "pin":{"location":{"lat": "22.280807","lon": "114.19211"}}, "city": "Hong Kong","region": "Hong Kong","zipCode": "N/A","cuisine": "Teppanyaki","price": "$$","url": "https://guide.michelin.com/hk/en/hong-kong-region/hong-kong/restaurant/im-teppanyaki-wine","star": "1"}
{"index":{"_index":"michelin"}} 
{"name": "Ah Yat Harbour View (Tsim Sha Tsui)","year": "2019", "pin":{"location":{"lat": "22.296984","lon": "114.17197"}}, "city": "Hong Kong","region": "Hong Kong","zipCode": "N/A","cuisine": "Cantonese","price": "$$","url": "https://guide.michelin.com/hk/en/hong-kong-region/hong-kong/restaurant/ah-yat-harbour-view-tsim-sha-tsui","star": "1"}
{"index":{"_index":"michelin"}} 
{"name": "Rech","year": "2019", "pin":{"location":{"lat": "22.293434","lon": "114.174034"}}, "city": "Hong Kong","region": "Hong Kong","zipCode": "N/A","cuisine": "Seafood","price": "$$$$","url": "https://guide.michelin.com/hk/en/hong-kong-region/hong-kong/restaurant/rech","star": "1"}
{"index":{"_index":"michelin"}} 
{"name": "Spring Moon","year": "2019", "pin":{"location":{"lat": "22.294943","lon": "114.17182"}}, "city": "Hong Kong","region": "Hong Kong","zipCode": "N/A","cuisine": "Cantonese","price": "$$$","url": "https://guide.michelin.com/hk/en/hong-kong-region/hong-kong/restaurant/spring-moon","star": "1"}
{"index":{"_index":"michelin"}} 
{"name": "Imperial Treasure Fine Chinese Cuisine","year": "2019", "pin":{"location":{"lat": "22.296177","lon": "114.170006"}}, "city": "Hong Kong","region": "Hong Kong","zipCode": "N/A","cuisine": "Cantonese","price": "$$","url": "https://guide.michelin.com/hk/en/hong-kong-region/hong-kong/restaurant/imperial-treasure-fine-chinese-cuisine","star": "1"}
{"index":{"_index":"michelin"}} 
{"name": "Sushi Tokami","year": "2019", "pin":{"location":{"lat": "22.296112","lon": "114.16916"}}, "city": "Hong Kong","region": "Hong Kong","zipCode": "N/A","cuisine": "Sushi","price": "$$$$$","url": "https://guide.michelin.com/hk/en/hong-kong-region/hong-kong/restaurant/sushi-tokami","star": "1"}
{"index":{"_index":"michelin"}} 
{"name": "Tosca","year": "2019", "pin":{"location":{"lat": "22.30357","lon": "114.16007"}}, "city": "Hong Kong","region": "Hong Kong","zipCode": "N/A","cuisine": "Italian","price": "$$$","url": "https://guide.michelin.com/hk/en/hong-kong-region/hong-kong/restaurant/tosca352519","star": "1"}
{"index":{"_index":"michelin"}} 
{"name": "Épure","year": "2019", "pin":{"location":{"lat": "22.29583","lon": "114.169304"}}, "city": "","region": "Hong Kong","zipCode": "N/A","cuisine": "French","price": "$$$","url": "https://guide.michelin.com/hk/en/hong-kong-region/hong-kong/restaurant/epure","star": "1"}
{"index":{"_index":"michelin"}} 
{"name": "Yee Tung Heen","year": "2019", "pin":{"location":{"lat": "22.282295","lon": "114.184135"}}, "city": "Hong Kong","region": "Hong Kong","zipCode": "N/A","cuisine": "Cantonese","price": "$$","url": "https://guide.michelin.com/hk/en/hong-kong-region/hong-kong/restaurant/yee-tung-heen","star": "1"}
{"index":{"_index":"michelin"}} 
{"name": "Yè Shanghai (Tsim Sha Tsui)","year": "2019", "pin":{"location":{"lat": "22.295143","lon": "114.168236"}}, "city": "Hong Kong","region": "Hong Kong","zipCode": "N/A","cuisine": "Shanghainese","price": "$","url": "https://guide.michelin.com/hk/en/hong-kong-region/hong-kong/restaurant/ye-shanghai-tsim-sha-tsui","star": "1"}
{"index":{"_index":"michelin"}} 
{"name": "Ho Hung Kee","year": "2019", "pin":{"location":{"lat": "22.280058","lon": "114.18364"}}, "city": "Hong Kong","region": "Hong Kong","zipCode": "N/A","cuisine": "Noodles and congee","price": "$","url": "https://guide.michelin.com/hk/en/hong-kong-region/hong-kong/restaurant/ho-hung-kee","star": "1"}
{"index":{"_index":"michelin"}} 
{"name": "Jardin de Jade (Wan Chai)","year": "2019", "pin":{"location":{"lat": "22.28025","lon": "114.17716"}}, "city": "Hong Kong","region": "Hong Kong","zipCode": "N/A","cuisine": "Shanghainese","price": "$$","url": "https://guide.michelin.com/hk/en/hong-kong-region/hong-kong/restaurant/jardin-de-jade-wan-chai","star": "1"}
{"index":{"_index":"michelin"}} 
{"name": "Zhejiang Heen","year": "2019", "pin":{"location":{"lat": "22.2787","lon": "114.17763"}}, "city": "Hong Kong","region": "Hong Kong","zipCode": "N/A","cuisine": "Shanghainese","price": "$$","url": "https://guide.michelin.com/hk/en/hong-kong-region/hong-kong/restaurant/zhejiang-heen","star": "1"}
{"index":{"_index":"michelin"}} 
{"name": "Takumi by Daisuke Mori","year": "2019", "pin":{"location":{"lat": "22.276512","lon": "114.17718"}}, "city": "Hong Kong","region": "Hong Kong","zipCode": "N/A","cuisine": "Innovative","price": "$$$$$","url": "https://guide.michelin.com/hk/en/hong-kong-region/hong-kong/restaurant/takumi-by-daisuke-mori","star": "1"}
{"index":{"_index":"michelin"}} 
{"name": "Kam's Roast Goose","year": "2019", "pin":{"location":{"lat": "22.277693","lon": "114.175385"}}, "city": "Hong Kong","region": "Hong Kong","zipCode": "N/A","cuisine": "Cantonese Roast Meats","price": "$","url": "https://guide.michelin.com/hk/en/hong-kong-region/hong-kong/restaurant/kam-s-roast-goose","star": "1"}
{"index":{"_index":"michelin"}} 
{"name": "Pang's Kitchen","year": "2019", "pin":{"location":{"lat": "22.26921","lon": "114.18452"}}, "city": "Hong Kong","region": "Hong Kong","zipCode": "N/A","cuisine": "Cantonese","price": "$","url": "https://guide.michelin.com/hk/en/hong-kong-region/hong-kong/restaurant/pang-s-kitchen","star": "1"}
{"index":{"_index":"michelin"}} 
{"name": "Xin Rong Ji","year": "2019", "pin":{"location":{"lat": "22.278013","lon": "114.17273"}}, "city": "Hong Kong","region": "Hong Kong","zipCode": "N/A","cuisine": "Taizhou","price": "$$$","url": "https://guide.michelin.com/hk/en/hong-kong-region/hong-kong/restaurant/xin-rong-ji","star": "1"}
{"index":{"_index":"michelin"}} 
{"name": "Qi (Wan Chai)","year": "2019", "pin":{"location":{"lat": "22.276443","lon": "114.17126"}}, "city": "Hong Kong","region": "Hong Kong","zipCode": "N/A","cuisine": "Sichuan","price": "$","url": "https://guide.michelin.com/hk/en/hong-kong-region/hong-kong/restaurant/qi-wan-chai","star": "1"}
{"index":{"_index":"michelin"}} 
{"name": "Man Wah","year": "2019", "pin":{"location":{"lat": "22.282213","lon": "114.15951"}}, "city": "Hong Kong","region": "Hong Kong","zipCode": "N/A","cuisine": "Cantonese","price": "$$$$","url": "https://guide.michelin.com/hk/en/hong-kong-region/hong-kong/restaurant/man-wah","star": "1"}
{"index":{"_index":"michelin"}} 
{"name": "Summer Palace","year": "2019", "pin":{"location":{"lat": "22.277136","lon": "114.1643"}}, "city": "Hong Kong","region": "Hong Kong","zipCode": "N/A","cuisine": "Cantonese","price": "$$$","url": "https://guide.michelin.com/hk/en/hong-kong-region/hong-kong/restaurant/summer-palace","star": "1"}
{"index":{"_index":"michelin"}} 
{"name": "Octavium","year": "2019", "pin":{"location":{"lat": "22.282587","lon": "114.1572"}}, "city": "Hong Kong","region": "Hong Kong","zipCode": "N/A","cuisine": "Italian","price": "$$$","url": "https://guide.michelin.com/hk/en/hong-kong-region/hong-kong/restaurant/octavium","star": "1"}
{"index":{"_index":"michelin"}} 
{"name": "Arbor","year": "2019", "pin":{"location":{"lat": "22.283146","lon": "114.15542"}}, "city": "","region": "Hong Kong","zipCode": "N/A","cuisine": "Innovative","price": "$$$","url": "https://guide.michelin.com/hk/en/hong-kong-region/hong-kong/restaurant/arbor","star": "1"}
{"index":{"_index":"michelin"}} 
{"name": "VEA","year": "2019", "pin":{"location":{"lat": "22.284931","lon": "114.15313"}}, "city": "Hong Kong","region": "Hong Kong","zipCode": "N/A","cuisine": "Innovative","price": "$$$$$","url": "https://guide.michelin.com/hk/en/hong-kong-region/hong-kong/restaurant/vea","star": "1"}
{"index":{"_index":"michelin"}} 
{"name": "Mandarin Grill + Bar","year": "2019", "pin":{"location":{"lat": "22.281048","lon": "114.1574"}}, "city": "Hong Kong","region": "Hong Kong","zipCode": "N/A","cuisine": "European contemporary","price": "$$$$","url": "https://guide.michelin.com/hk/en/hong-kong-region/hong-kong/restaurant/mandarin-grill-bar","star": "1"}
{"index":{"_index":"michelin"}} 
{"name": "Yat Lok","year": "2019", "pin":{"location":{"lat": "22.28226","lon": "114.155655"}}, "city": "Hong Kong","region": "Hong Kong","zipCode": "N/A","cuisine": "Cantonese Roast Meats","price": "$","url": "https://guide.michelin.com/hk/en/hong-kong-region/hong-kong/restaurant/yat-lok","star": "1"}
{"index":{"_index":"michelin"}} 
{"name": "Guo Fu Lou","year": "2019", "pin":{"location":{"lat": "22.278313","lon": "114.16034"}}, "city": "Hong Kong","region": "Hong Kong","zipCode": "N/A","cuisine": "Cantonese","price": "$$$","url": "https://guide.michelin.com/hk/en/hong-kong-region/hong-kong/restaurant/guo-fu-lou567828","star": "1"}
{"index":{"_index":"michelin"}} 
{"name": "Celebrity Cuisine","year": "2019", "pin":{"location":{"lat": "22.284334","lon": "114.15312"}}, "city": "Hong Kong","region": "Hong Kong","zipCode": "N/A","cuisine": "Cantonese","price": "$$","url": "https://guide.michelin.com/hk/en/hong-kong-region/hong-kong/restaurant/celebrity-cuisine","star": "1"}
{"index":{"_index":"michelin"}} 
{"name": "Sushi Wadatsumi","year": "2019", "pin":{"location":{"lat": "22.281038","lon": "114.15646"}}, "city": "Hong Kong","region": "Hong Kong","zipCode": "N/A","cuisine": "Sushi","price": "$$$","url": "https://guide.michelin.com/hk/en/hong-kong-region/hong-kong/restaurant/sushi-wadatsumi","star": "1"}
{"index":{"_index":"michelin"}} 
{"name": "Arcane","year": "2019", "pin":{"location":{"lat": "22.280624","lon": "114.15682"}}, "city": "Hong Kong","region": "Hong Kong","zipCode": "N/A","cuisine": "European contemporary","price": "$$$","url": "https://guide.michelin.com/hk/en/hong-kong-region/hong-kong/restaurant/arcane","star": "1"}
{"index":{"_index":"michelin"}} 
{"name": "Duddell's","year": "2019", "pin":{"location":{"lat": "22.28008","lon": "114.157364"}}, "city": "Hong Kong","region": "Hong Kong","zipCode": "N/A","cuisine": "Cantonese","price": "$$$","url": "https://guide.michelin.com/hk/en/hong-kong-region/hong-kong/restaurant/duddell-s","star": "1"}
{"index":{"_index":"michelin"}} 
{"name": "Beefbar","year": "2019", "pin":{"location":{"lat": "22.27982","lon": "114.15752"}}, "city": "Hong Kong","region": "Hong Kong","zipCode": "N/A","cuisine": "Steakhouse","price": "$$","url": "https://guide.michelin.com/hk/en/hong-kong-region/hong-kong/restaurant/beefbar","star": "1"}
{"index":{"_index":"michelin"}} 
{"name": "New Punjab Club","year": "2019", "pin":{"location":{"lat": "22.28005","lon": "114.15525"}}, "city": "Hong Kong","region": "Hong Kong","zipCode": "N/A","cuisine": "Indian","price": "$$","url": "https://guide.michelin.com/hk/en/hong-kong-region/hong-kong/restaurant/new-punjab-club","star": "1"}
{"index":{"_index":"michelin"}} 
{"name": "Kaiseki Den by Saotome","year": "2019", "pin":{"location":{"lat": "22.285713","lon": "114.147865"}}, "city": "Hong Kong","region": "Hong Kong","zipCode": "N/A","cuisine": "Japanese","price": "$$$$$","url": "https://guide.michelin.com/hk/en/hong-kong-region/hong-kong/restaurant/kaiseki-den-by-saotome","star": "1"}
{"index":{"_index":"michelin"}} 
{"name": "Belon","year": "2019", "pin":{"location":{"lat": "22.281662","lon": "114.152405"}}, "city": "Hong Kong","region": "Hong Kong","zipCode": "N/A","cuisine": "French","price": "$$$","url": "https://guide.michelin.com/hk/en/hong-kong-region/hong-kong/restaurant/belon","star": "1"}
{"index":{"_index":"michelin"}} 
{"name": "Tate","year": "2019", "pin":{"location":{"lat": "22.280996","lon": "114.15276"}}, "city": "Hong Kong","region": "Hong Kong","zipCode": "N/A","cuisine": "Innovative","price": "$$$$$","url": "https://guide.michelin.com/hk/en/hong-kong-region/hong-kong/restaurant/tate","star": "1"}
{"index":{"_index":"michelin"}} 
{"name": "The Ocean","year": "2019", "pin":{"location":{"lat": "22.235146","lon": "114.198524"}}, "city": "Hong Kong","region": "Hong Kong","zipCode": "N/A","cuisine": "French","price": "$$$$$","url": "https://guide.michelin.com/hk/en/hong-kong-region/hong-kong/restaurant/the-ocean","star": "1"}
{"index":{"_index":"michelin"}} 
{"name": "Costes Downtown","year": "2019", "pin":{"location":{"lat": "47.50113","lon": "19.048595"}}, "city": "Budapest","region": "Hungary","zipCode": "1051","cuisine": "Modern cuisine","price": "$$$$","url": "https://guide.michelin.com/hu/en/central-hungary/budapest/restaurant/costes-downtown","star": "1"}
{"index":{"_index":"michelin"}} 
{"name": "Borkonyha Winekitchen","year": "2019", "pin":{"location":{"lat": "47.49953","lon": "19.052391"}}, "city": "Budapest","region": "Hungary","zipCode": "1051","cuisine": "Modern cuisine","price": "$$$$","url": "https://guide.michelin.com/hu/en/central-hungary/budapest/restaurant/borkonyha-winekitchen","star": "1"}
{"index":{"_index":"michelin"}} 
{"name": "Stand","year": "2019", "pin":{"location":{"lat": "47.500244","lon": "19.059624"}}, "city": "Budapest","region": "Hungary","zipCode": "1061","cuisine": "Modern cuisine","price": "$$$","url": "https://guide.michelin.com/hu/en/central-hungary/budapest/restaurant/stand","star": "1"}
{"index":{"_index":"michelin"}} 
{"name": "Babel","year": "2019", "pin":{"location":{"lat": "47.492603","lon": "19.05256"}}, "city": "Budapest","region": "Hungary","zipCode": "1052","cuisine": "Modern cuisine","price": "$$$$$","url": "https://guide.michelin.com/hu/en/central-hungary/budapest/restaurant/babel","star": "1"}
{"index":{"_index":"michelin"}} 
{"name": "Costes","year": "2019", "pin":{"location":{"lat": "47.48873","lon": "19.061779"}}, "city": "Budapest","region": "Hungary","zipCode": "1092","cuisine": "Modern cuisine","price": "$$$$$","url": "https://guide.michelin.com/hu/en/central-hungary/budapest/restaurant/costes","star": "1"}
{"index":{"_index":"michelin"}} 
{"name": "The Kitchen","year": "2019", "pin":{"location":{"lat": "22.191442","lon": "113.543"}}, "city": "Macau","region": "Macau","zipCode": "N/A","cuisine": "Steakhouse","price": "$$$","url": "https://guide.michelin.com/mo/en/macau-region/macau/restaurant/the-kitchen417810","star": "1"}
{"index":{"_index":"michelin"}} 
{"name": "Tim's Kitchen","year": "2019", "pin":{"location":{"lat": "22.189898","lon": "113.5439"}}, "city": "Macau","region": "Macau","zipCode": "N/A","cuisine": "Cantonese","price": "$$","url": "https://guide.michelin.com/mo/en/macau-region/macau/restaurant/tim-s-kitchen","star": "1"}
{"index":{"_index":"michelin"}} 
{"name": "Wing Lei","year": "2019", "pin":{"location":{"lat": "22.188028","lon": "113.54578"}}, "city": "Macau","region": "Macau","zipCode": "N/A","cuisine": "Cantonese","price": "$$","url": "https://guide.michelin.com/mo/en/macau-region/macau/restaurant/wing-lei","star": "1"}
{"index":{"_index":"michelin"}} 
{"name": "King","year": "2019", "pin":{"location":{"lat": "22.190178","lon": "113.54028"}}, "city": "Macau","region": "Macau","zipCode": "N/A","cuisine": "Cantonese","price": "$","url": "https://guide.michelin.com/mo/en/macau-region/macau/restaurant/king380226","star": "1"}
{"index":{"_index":"michelin"}} 
{"name": "Ying","year": "2019", "pin":{"location":{"lat": "22.161234","lon": "113.555405"}}, "city": "Macau","region": "Macau","zipCode": "N/A","cuisine": "Cantonese","price": "$$","url": "https://guide.michelin.com/mo/en/macau-region/macau/restaurant/ying","star": "1"}
{"index":{"_index":"michelin"}} 
{"name": "Shinji by Kanesaka","year": "2019", "pin":{"location":{"lat": "22.149635","lon": "113.56397"}}, "city": "Macau","region": "Macau","zipCode": "N/A","cuisine": "Sushi","price": "$$$$","url": "https://guide.michelin.com/mo/en/macau-region/macau/restaurant/shinji-by-kanesaka","star": "1"}
{"index":{"_index":"michelin"}} 
{"name": "The Golden Peacock","year": "2019", "pin":{"location":{"lat": "22.148178","lon": "113.56335"}}, "city": "Macau","region": "Macau","zipCode": "N/A","cuisine": "Indian","price": "$","url": "https://guide.michelin.com/mo/en/macau-region/macau/restaurant/the-golden-peacock","star": "1"}
{"index":{"_index":"michelin"}} 
{"name": "Zi Yat Heen","year": "2019", "pin":{"location":{"lat": "22.145418","lon": "113.56152"}}, "city": "Macau","region": "Macau","zipCode": "N/A","cuisine": "Cantonese","price": "$$","url": "https://guide.michelin.com/mo/en/macau-region/macau/restaurant/zi-yat-heen","star": "1"}
{"index":{"_index":"michelin"}} 
{"name": "8 1/2 Otto e Mezzo - Bombana","year": "2019", "pin":{"location":{"lat": "22.14918","lon": "113.55393"}}, "city": "Macau","region": "Macau","zipCode": "N/A","cuisine": "Italian","price": "$$$","url": "https://guide.michelin.com/mo/en/macau-region/macau/restaurant/8-1-2-otto-e-mezzo-bombana","star": "1"}
{"index":{"_index":"michelin"}} 
{"name": "Pearl Dragon","year": "2019", "pin":{"location":{"lat": "22.140524","lon": "113.56256"}}, "city": "Macau","region": "Macau","zipCode": "N/A","cuisine": "Cantonese","price": "$$$","url": "https://guide.michelin.com/mo/en/macau-region/macau/restaurant/pearl-dragon","star": "1"}
{"index":{"_index":"michelin"}} 
{"name": "Lai Heen","year": "2019", "pin":{"location":{"lat": "22.148754","lon": "113.551926"}}, "city": "Macau","region": "Macau","zipCode": "N/A","cuisine": "Cantonese","price": "$$","url": "https://guide.michelin.com/mo/en/macau-region/macau/restaurant/lai-heen","star": "1"}
{"index":{"_index":"michelin"}} 
{"name": "FAGN","year": "2019", "pin":{"location":{"lat": "63.43392","lon": "10.39628"}}, "city": "Trondheim","region": "Norway","zipCode": "7010","cuisine": "Modern cuisine","price": "$$$$","url": "https://guide.michelin.com/no/en/trondelag/trondheim/restaurant/fagn","star": "1"}
{"index":{"_index":"michelin"}} 
{"name": "Credo","year": "2019", "pin":{"location":{"lat": "63.43391","lon": "10.39631"}}, "city": "Trondheim","region": "Norway","zipCode": "7066","cuisine": "Creative","price": "$$$$","url": "https://guide.michelin.com/no/en/trondelag/trondheim/restaurant/credo","star": "1"}
{"index":{"_index":"michelin"}} 
{"name": "RE-NAA","year": "2019", "pin":{"location":{"lat": "58.972088","lon": "5.732877"}}, "city": "Stavanger","region": "Norway","zipCode": "4006","cuisine": "Creative","price": "$$$$","url": "https://guide.michelin.com/no/en/rogaland/stavanger/restaurant/re-naa","star": "1"}
{"index":{"_index":"michelin"}} 
{"name": "Sabi Omakase","year": "2019", "pin":{"location":{"lat": "58.969936","lon": "5.7433133"}}, "city": "Stavanger","region": "Norway","zipCode": "4013","cuisine": "Sushi","price": "$$$$","url": "https://guide.michelin.com/no/en/rogaland/stavanger/restaurant/sabi-omakase","star": "1"}
{"index":{"_index":"michelin"}} 
{"name": "Galt","year": "2019", "pin":{"location":{"lat": "59.91661","lon": "10.71369"}}, "city": "Oslo","region": "Norway","zipCode": "263","cuisine": "Modern cuisine","price": "$$$","url": "https://guide.michelin.com/no/en/oslo-region/oslo/restaurant/galt","star": "1"}
{"index":{"_index":"michelin"}} 
{"name": "Kontrast","year": "2019", "pin":{"location":{"lat": "59.92355","lon": "10.75106"}}, "city": "Oslo","region": "Norway","zipCode": "178","cuisine": "Scandinavian","price": "$$$","url": "https://guide.michelin.com/no/en/oslo-region/oslo/restaurant/kontrast","star": "1"}
{"index":{"_index":"michelin"}} 
{"name": "Statholdergaarden","year": "2019", "pin":{"location":{"lat": "59.90937","lon": "10.74305"}}, "city": "Oslo","region": "Norway","zipCode": "151","cuisine": "Classic cuisine","price": "$$$$","url": "https://guide.michelin.com/no/en/oslo-region/oslo/restaurant/statholdergaarden","star": "1"}
{"index":{"_index":"michelin"}} 
{"name": "Del Posto","year": "2019", "pin":{"location":{"lat": "40.74327","lon": "-74.0077"}}, "city": "New York","region": "New York City","zipCode": "10011","cuisine": "Italian","price": "$$$$","url": "https://guide.michelin.com/us/en/new-york-state/new-york/restaurant/del-posto","star": "1"}
{"index":{"_index":"michelin"}} 
{"name": "Le Grill de Joël Robuchon","year": "2019", "pin":{"location":{"lat": "40.742897","lon": "-74.0077"}}, "city": "New York","region": "New York City","zipCode": "N/A","cuisine": "French","price": "$$$$","url": "https://guide.michelin.com/us/en/new-york-state/new-york/restaurant/le-grill-de-joel-robuchon","star": "1"}
{"index":{"_index":"michelin"}} 
{"name": "L'Appart","year": "2019", "pin":{"location":{"lat": "40.711903","lon": "-74.01544"}}, "city": "New York","region": "New York City","zipCode": "10281","cuisine": "French","price": "$$$$","url": "https://guide.michelin.com/us/en/new-york-state/new-york/restaurant/l-appart","star": "1"}
{"index":{"_index":"michelin"}} 
{"name": "Okuda","year": "2019", "pin":{"location":{"lat": "40.743793","lon": "-74.00633"}}, "city": "New York","region": "New York City","zipCode": "N/A","cuisine": "Japanese","price": "$$$$","url": "https://guide.michelin.com/us/en/new-york-state/new-york/restaurant/okuda","star": "1"}
{"index":{"_index":"michelin"}} 
{"name": "Wallsé","year": "2019", "pin":{"location":{"lat": "40.73538","lon": "-74.00814"}}, "city": "New York","region": "New York City","zipCode": "10014","cuisine": "Austrian","price": "$$$$","url": "https://guide.michelin.com/us/en/new-york-state/new-york/restaurant/wallse","star": "1"}
{"index":{"_index":"michelin"}} 
{"name": "Jeju Noodle Bar","year": "2019", "pin":{"location":{"lat": "40.732952","lon": "-74.00744"}}, "city": "New York","region": "New York City","zipCode": "10014","cuisine": "Korean","price": "$$","url": "https://guide.michelin.com/us/en/new-york-state/new-york/restaurant/jeju-noodle-bar","star": "1"}
{"index":{"_index":"michelin"}} 
{"name": "Sushi Nakazawa","year": "2019", "pin":{"location":{"lat": "40.731716","lon": "-74.00451"}}, "city": "New York","region": "New York City","zipCode": "10014","cuisine": "Japanese","price": "$$$$","url": "https://guide.michelin.com/us/en/new-york-state/new-york/restaurant/sushi-nakazawa","star": "1"}
{"index":{"_index":"michelin"}} 
{"name": "Kosaka","year": "2019", "pin":{"location":{"lat": "40.738316","lon": "-74.00137"}}, "city": "New York","region": "New York City","zipCode": "10011","cuisine": "Japanese","price": "$$$$","url": "https://guide.michelin.com/us/en/new-york-state/new-york/restaurant/kosaka","star": "1"}
{"index":{"_index":"michelin"}} 
{"name": "Bâtard","year": "2019", "pin":{"location":{"lat": "40.719616","lon": "-74.00589"}}, "city": "New York","region": "New York City","zipCode": "10013","cuisine": "Contemporary","price": "$$$$","url": "https://guide.michelin.com/us/en/new-york-state/new-york/restaurant/batard","star": "1"}
{"index":{"_index":"michelin"}} 
{"name": "Hirohisa","year": "2019", "pin":{"location":{"lat": "40.72452","lon": "-74.003006"}}, "city": "New York","region": "New York City","zipCode": "10012","cuisine": "Japanese","price": "$$$","url": "https://guide.michelin.com/us/en/new-york-state/new-york/restaurant/hirohisa","star": "1"}
{"index":{"_index":"michelin"}} 
{"name": "Blue Hill","year": "2019", "pin":{"location":{"lat": "40.7321","lon": "-73.9996"}}, "city": "New York","region": "New York City","zipCode": "10011","cuisine": "American","price": "$$$$","url": "https://guide.michelin.com/us/en/new-york-state/new-york/restaurant/blue-hill","star": "1"}
{"index":{"_index":"michelin"}} 
{"name": "ZZ's Clam Bar","year": "2019", "pin":{"location":{"lat": "40.727646","lon": "-74.00046"}}, "city": "New York","region": "New York City","zipCode": "10012","cuisine": "Seafood","price": "$$$$","url": "https://guide.michelin.com/us/en/new-york-state/new-york/restaurant/zz-s-clam-bar","star": "1"}
{"index":{"_index":"michelin"}} 
{"name": "Babbo","year": "2019", "pin":{"location":{"lat": "40.73233","lon": "-73.99916"}}, "city": "New York","region": "New York City","zipCode": "10011","cuisine": "Italian","price": "$$$$","url": "https://guide.michelin.com/us/en/new-york-state/new-york/restaurant/babbo","star": "1"}
{"index":{"_index":"michelin"}} 
{"name": "Carbone","year": "2019", "pin":{"location":{"lat": "40.727966","lon": "-74.00017"}}, "city": "New York","region": "New York City","zipCode": "10003","cuisine": "Italian","price": "$$$$","url": "https://guide.michelin.com/us/en/new-york-state/new-york/restaurant/carbone","star": "1"}
{"index":{"_index":"michelin"}} 
{"name": "Le Coucou","year": "2019", "pin":{"location":{"lat": "40.719162","lon": "-74.00001"}}, "city": "New York","region": "New York City","zipCode": "10013","cuisine": "French","price": "$$$","url": "https://guide.michelin.com/us/en/new-york-state/new-york/restaurant/le-coucou","star": "1"}
{"index":{"_index":"michelin"}} 
{"name": "Aldea","year": "2019", "pin":{"location":{"lat": "40.73885","lon": "-73.99366"}}, "city": "New York","region": "New York City","zipCode": "10011","cuisine": "Mediterranean","price": "$$$$","url": "https://guide.michelin.com/us/en/new-york-state/new-york/restaurant/aldea","star": "1"}
{"index":{"_index":"michelin"}} 
{"name": "Cote","year": "2019", "pin":{"location":{"lat": "40.73778","lon": "-73.99375"}}, "city": "New York","region": "New York City","zipCode": "10010","cuisine": "Korean","price": "$$$","url": "https://guide.michelin.com/us/en/new-york-state/new-york/restaurant/cote","star": "1"}
{"index":{"_index":"michelin"}} 
{"name": "Bouley at Home","year": "2019", "pin":{"location":{"lat": "40.74114","lon": "-73.99242"}}, "city": "New York","region": "New York City","zipCode": "N/A","cuisine": "Contemporary","price": "$$$","url": "https://guide.michelin.com/us/en/new-york-state/new-york/restaurant/bouley-at-home","star": "1"}
{"index":{"_index":"michelin"}} 
{"name": "Gotham Bar and Grill","year": "2019", "pin":{"location":{"lat": "40.73417","lon": "-73.99379"}}, "city": "New York","region": "New York City","zipCode": "10003","cuisine": "American","price": "$$$$","url": "https://guide.michelin.com/us/en/new-york-state/new-york/restaurant/gotham-bar-and-grill","star": "1"}
{"index":{"_index":"michelin"}} 
{"name": "Nix","year": "2019", "pin":{"location":{"lat": "40.733166","lon": "-73.993515"}}, "city": "New York","region": "New York City","zipCode": "10003","cuisine": "Vegetarian","price": "$$$","url": "https://guide.michelin.com/us/en/new-york-state/new-york/restaurant/nix","star": "1"}
{"index":{"_index":"michelin"}} 
{"name": "Junoon","year": "2019", "pin":{"location":{"lat": "40.74325","lon": "-73.99077"}}, "city": "New York","region": "New York City","zipCode": "10010","cuisine": "Indian","price": "$$$$","url": "https://guide.michelin.com/us/en/new-york-state/new-york/restaurant/junoon","star": "1"}
{"index":{"_index":"michelin"}} 
{"name": "NoMad","year": "2019", "pin":{"location":{"lat": "40.74497","lon": "-73.98883"}}, "city": "New York","region": "New York City","zipCode": "10001","cuisine": "Contemporary","price": "$$$$","url": "https://guide.michelin.com/us/en/new-york-state/new-york/restaurant/nomad","star": "1"}
{"index":{"_index":"michelin"}} 
{"name": "The Musket Room","year": "2019", "pin":{"location":{"lat": "40.723915","lon": "-73.99375"}}, "city": "New York","region": "New York City","zipCode": "10012","cuisine": "Contemporary","price": "$$$","url": "https://guide.michelin.com/us/en/new-york-state/new-york/restaurant/the-musket-room","star": "1"}
{"index":{"_index":"michelin"}} 
{"name": "Uncle Boons","year": "2019", "pin":{"location":{"lat": "40.721203","lon": "-73.99441"}}, "city": "New York","region": "New York City","zipCode": "10012","cuisine": "Thai","price": "$$","url": "https://guide.michelin.com/us/en/new-york-state/new-york/restaurant/uncle-boons","star": "1"}
{"index":{"_index":"michelin"}} 
{"name": "Noda","year": "2019", "pin":{"location":{"lat": "40.74497","lon": "-73.988075"}}, "city": "New York","region": "New York City","zipCode": "N/A","cuisine": "Japanese","price": "$$$$","url": "https://guide.michelin.com/us/en/new-york-state/new-york/restaurant/noda","star": "1"}
{"index":{"_index":"michelin"}} 
{"name": "Gramercy Tavern","year": "2019", "pin":{"location":{"lat": "40.73849","lon": "-73.98868"}}, "city": "New York","region": "New York City","zipCode": "10003","cuisine": "Contemporary","price": "$$$$","url": "https://guide.michelin.com/us/en/new-york-state/new-york/restaurant/gramercy-tavern","star": "1"}
{"index":{"_index":"michelin"}} 
{"name": "The Clocktower","year": "2019", "pin":{"location":{"lat": "40.7414","lon": "-73.987595"}}, "city": "New York","region": "New York City","zipCode": "10010","cuisine": "Contemporary","price": "$$$","url": "https://guide.michelin.com/us/en/new-york-state/new-york/restaurant/the-clocktower","star": "1"}
{"index":{"_index":"michelin"}} 
{"name": "Ai Fiori","year": "2019", "pin":{"location":{"lat": "40.75013","lon": "-73.98357"}}, "city": "New York","region": "New York City","zipCode": "10018","cuisine": "Italian","price": "$$$$","url": "https://guide.michelin.com/us/en/new-york-state/new-york/restaurant/ai-fiori","star": "1"}
{"index":{"_index":"michelin"}} 
{"name": "Casa Mono","year": "2019", "pin":{"location":{"lat": "40.73595","lon": "-73.98706"}}, "city": "New York","region": "New York City","zipCode": "10003","cuisine": "Spanish","price": "$$$","url": "https://guide.michelin.com/us/en/new-york-state/new-york/restaurant/casa-mono","star": "1"}
{"index":{"_index":"michelin"}} 
{"name": "Jewel Bako","year": "2019", "pin":{"location":{"lat": "40.72713","lon": "-73.98928"}}, "city": "New York","region": "New York City","zipCode": "10003","cuisine": "Japanese","price": "$$$","url": "https://guide.michelin.com/us/en/new-york-state/new-york/restaurant/jewel-bako","star": "1"}
{"index":{"_index":"michelin"}} 
{"name": "The River Café","year": "2019", "pin":{"location":{"lat": "40.703613","lon": "-73.994774"}}, "city": "New York","region": "New York City","zipCode": "11201","cuisine": "Contemporary","price": "$$$$","url": "https://guide.michelin.com/us/en/new-york-state/new-york/restaurant/the-river-cafe","star": "1"}
{"index":{"_index":"michelin"}} 
{"name": "Bar Uchū","year": "2019", "pin":{"location":{"lat": "40.72191","lon": "-73.99003"}}, "city": "New York","region": "New York City","zipCode": "10002","cuisine": "Japanese","price": "$$$$","url": "https://guide.michelin.com/us/en/new-york-state/new-york/restaurant/bar-uchu","star": "1"}
{"index":{"_index":"michelin"}} 
{"name": "Café China","year": "2019", "pin":{"location":{"lat": "40.749973","lon": "-73.98228"}}, "city": "New York","region": "New York City","zipCode": "10016","cuisine": "Chinese","price": "$$","url": "https://guide.michelin.com/us/en/new-york-state/new-york/restaurant/cafe-china","star": "1"}
{"index":{"_index":"michelin"}} 
{"name": "Kanoyama","year": "2019", "pin":{"location":{"lat": "40.73071","lon": "-73.98655"}}, "city": "New York","region": "New York City","zipCode": "10003","cuisine": "Japanese","price": "$$$","url": "https://guide.michelin.com/us/en/new-york-state/new-york/restaurant/kanoyama","star": "1"}
{"index":{"_index":"michelin"}} 
{"name": "Contra","year": "2019", "pin":{"location":{"lat": "40.719917","lon": "-73.98922"}}, "city": "New York","region": "New York City","zipCode": "10002","cuisine": "Contemporary","price": "$$$$","url": "https://guide.michelin.com/us/en/new-york-state/new-york/restaurant/contra","star": "1"}
{"index":{"_index":"michelin"}} 
{"name": "Atomix","year": "2019", "pin":{"location":{"lat": "40.744408","lon": "-73.98292"}}, "city": "New York","region": "New York City","zipCode": "N/A","cuisine": "Korean","price": "$$$$","url": "https://guide.michelin.com/us/en/new-york-state/new-york/restaurant/atomix","star": "1"}
{"index":{"_index":"michelin"}} 
{"name": "Kyo Ya","year": "2019", "pin":{"location":{"lat": "40.7266","lon": "-73.98526"}}, "city": "New York","region": "New York City","zipCode": "10009","cuisine": "Japanese","price": "$$$","url": "https://guide.michelin.com/us/en/new-york-state/new-york/restaurant/kyo-ya","star": "1"}
{"index":{"_index":"michelin"}} 
{"name": "Kajitsu","year": "2019", "pin":{"location":{"lat": "40.72776","lon": "-73.98428"}}, "city": "New York","region": "New York City","zipCode": "10016","cuisine": "Japanese","price": "$$$","url": "https://guide.michelin.com/us/en/new-york-state/new-york/restaurant/kajitsu","star": "1"}
{"index":{"_index":"michelin"}} 
{"name": "Agern","year": "2019", "pin":{"location":{"lat": "40.75234","lon": "-73.9775"}}, "city": "New York","region": "New York City","zipCode": "10017","cuisine": "Scandinavian","price": "$$$$","url": "https://guide.michelin.com/us/en/new-york-state/new-york/restaurant/agern","star": "1"}
{"index":{"_index":"michelin"}} 
{"name": "Caviar Russe","year": "2019", "pin":{"location":{"lat": "40.760685","lon": "-73.97355"}}, "city": "New York","region": "New York City","zipCode": "10022","cuisine": "Contemporary","price": "$$$$","url": "https://guide.michelin.com/us/en/new-york-state/new-york/restaurant/caviar-russe","star": "1"}
{"index":{"_index":"michelin"}} 
{"name": "Tuome","year": "2019", "pin":{"location":{"lat": "40.724194","lon": "-73.9828"}}, "city": "New York","region": "New York City","zipCode": "10009","cuisine": "Fusion","price": "$$","url": "https://guide.michelin.com/us/en/new-york-state/new-york/restaurant/tuome","star": "1"}
{"index":{"_index":"michelin"}} 
{"name": "Tempura Matsui","year": "2019", "pin":{"location":{"lat": "40.74839","lon": "-73.97474"}}, "city": "New York","region": "New York City","zipCode": "10158","cuisine": "Japanese","price": "$$$$","url": "https://guide.michelin.com/us/en/new-york-state/new-york/restaurant/tempura-matsui","star": "1"}
{"index":{"_index":"michelin"}} 
{"name": "Sushi Yasuda","year": "2019", "pin":{"location":{"lat": "40.75108","lon": "-73.97364"}}, "city": "New York","region": "New York City","zipCode": "10017","cuisine": "Japanese","price": "$$$$","url": "https://guide.michelin.com/us/en/new-york-state/new-york/restaurant/sushi-yasuda","star": "1"}
{"index":{"_index":"michelin"}} 
{"name": "Sushi Amane","year": "2019", "pin":{"location":{"lat": "40.75133","lon": "-73.971725"}}, "city": "New York","region": "New York City","zipCode": "10017","cuisine": "Japanese","price": "$$$$","url": "https://guide.michelin.com/us/en/new-york-state/new-york/restaurant/sushi-amane","star": "1"}
{"index":{"_index":"michelin"}} 
{"name": "Café Boulud","year": "2019", "pin":{"location":{"lat": "40.77439","lon": "-73.96414"}}, "city": "New York","region": "New York City","zipCode": "10021","cuisine": "French","price": "$$$$","url": "https://guide.michelin.com/us/en/new-york-state/new-york/restaurant/cafe-boulud","star": "1"}
{"index":{"_index":"michelin"}} 
{"name": "Claro","year": "2019", "pin":{"location":{"lat": "40.677395","lon": "-73.98615"}}, "city": "New York","region": "New York City","zipCode": "N/A","cuisine": "Mexican","price": "$$","url": "https://guide.michelin.com/us/en/new-york-state/new-york/restaurant/claro","star": "1"}
{"index":{"_index":"michelin"}} 
{"name": "Satsuki","year": "2019", "pin":{"location":{"lat": "40.801243","lon": "-73.95187"}}, "city": "New York","region": "New York City","zipCode": "10036","cuisine": "Japanese","price": "$$$$","url": "https://guide.michelin.com/us/en/new-york-state/new-york/restaurant/satsuki","star": "1"}
{"index":{"_index":"michelin"}} 
{"name": "Sushi Noz","year": "2019", "pin":{"location":{"lat": "40.77384","lon": "-73.958275"}}, "city": "New York","region": "New York City","zipCode": "N/A","cuisine": "Japanese","price": "$$$$","url": "https://guide.michelin.com/us/en/new-york-state/new-york/restaurant/sushi-noz","star": "1"}
{"index":{"_index":"michelin"}} 
{"name": "Sushi Inoue","year": "2019", "pin":{"location":{"lat": "40.810448","lon": "-73.943726"}}, "city": "New York","region": "New York City","zipCode": "10027","cuisine": "Japanese","price": "$$$$","url": "https://guide.michelin.com/us/en/new-york-state/new-york/restaurant/sushi-inoue","star": "1"}
{"index":{"_index":"michelin"}} 
{"name": "Meadowsweet","year": "2019", "pin":{"location":{"lat": "40.710354","lon": "-73.96317"}}, "city": "New York","region": "New York City","zipCode": "11212","cuisine": "Mediterranean","price": "$$$","url": "https://guide.michelin.com/us/en/new-york-state/new-york/restaurant/meadowsweet","star": "1"}
{"index":{"_index":"michelin"}} 
{"name": "Casa Enríque","year": "2019", "pin":{"location":{"lat": "40.743492","lon": "-73.95425"}}, "city": "New York","region": "New York City","zipCode": "11101","cuisine": "Mexican","price": "$$","url": "https://guide.michelin.com/us/en/new-york-state/new-york/restaurant/casa-enrique","star": "1"}
{"index":{"_index":"michelin"}} 
{"name": "Peter Luger","year": "2019", "pin":{"location":{"lat": "40.70986","lon": "-73.96263"}}, "city": "New York","region": "New York City","zipCode": "11211","cuisine": "Steakhouse","price": "$$$$","url": "https://guide.michelin.com/us/en/new-york-state/new-york/restaurant/peter-luger","star": "1"}
{"index":{"_index":"michelin"}} 
{"name": "Oxomoco","year": "2019", "pin":{"location":{"lat": "40.730057","lon": "-73.95538"}}, "city": "New York","region": "New York City","zipCode": "11222","cuisine": "Mexican","price": "$$$","url": "https://guide.michelin.com/us/en/new-york-state/new-york/restaurant/oxomoco","star": "1"}
{"index":{"_index":"michelin"}} 
{"name": "The Finch","year": "2019", "pin":{"location":{"lat": "40.68704","lon": "-73.96297"}}, "city": "New York","region": "New York City","zipCode": "11238","cuisine": "American","price": "$$$","url": "https://guide.michelin.com/us/en/new-york-state/new-york/restaurant/the-finch","star": "1"}
{"index":{"_index":"michelin"}} 
{"name": "Faro","year": "2019", "pin":{"location":{"lat": "40.707584","lon": "-73.923035"}}, "city": "New York","region": "New York City","zipCode": "11237","cuisine": "American","price": "$$","url": "https://guide.michelin.com/us/en/new-york-state/new-york/restaurant/faro","star": "1"}
{"index":{"_index":"michelin"}} 
{"name": "Senses","year": "2019", "pin":{"location":{"lat": "52.244583","lon": "21.005886"}}, "city": "Warszawa","region": "Poland","zipCode": "00 085","cuisine": "Modern cuisine","price": "$$$$$","url": "https://guide.michelin.com/pl/en/masovia/warszawa/restaurant/senses","star": "1"}
{"index":{"_index":"michelin"}} 
{"name": "atelier Amaro","year": "2019", "pin":{"location":{"lat": "52.21708","lon": "21.03768"}}, "city": "Warszawa","region": "Poland","zipCode": "00 507","cuisine": "Modern cuisine","price": "$$$$","url": "https://guide.michelin.com/pl/en/masovia/warszawa/restaurant/atelier-amaro","star": "1"}
{"index":{"_index":"michelin"}} 
{"name": "Aniar","year": "2019", "pin":{"location":{"lat": "53.27112","lon": "-9.057078"}}, "city": "Gaillimh/Galway","region": "Ireland","zipCode": "N/A","cuisine": "Creative","price": "N/A","url": "https://guide.michelin.com/ie/en/galway/gaillimh-galway/restaurant/aniar","star": "1"}
{"index":{"_index":"michelin"}} 
{"name": "Loam","year": "2019", "pin":{"location":{"lat": "53.27384","lon": "-9.044447"}}, "city": "Gaillimh/Galway","region": "Ireland","zipCode": "N/A","cuisine": "Creative","price": "N/A","url": "https://guide.michelin.com/ie/en/galway/gaillimh-galway/restaurant/loam","star": "1"}
{"index":{"_index":"michelin"}} 
{"name": "Wild Honey Inn","year": "2019", "pin":{"location":{"lat": "53.03151","lon": "-9.2911"}}, "city": "Lios Dúin Bhearna/Lisdoonvarna","region": "Ireland","zipCode": "N/A","cuisine": "Classic cuisine","price": "N/A","url": "https://guide.michelin.com/ie/en/clare/lios-duin-bhearna-lisdoonvarna/restaurant/wild-honey-inn","star": "1"}
{"index":{"_index":"michelin"}} 
{"name": "Chestnut","year": "2019", "pin":{"location":{"lat": "51.562588","lon": "-9.460854"}}, "city": "Ballydehob","region": "Ireland","zipCode": "N/A","cuisine": "Modern cuisine","price": "N/A","url": "https://guide.michelin.com/ie/en/cork/ballydehob/restaurant/chestnut","star": "1"}
{"index":{"_index":"michelin"}} 
{"name": "Mews","year": "2019", "pin":{"location":{"lat": "51.48285","lon": "-9.37234"}}, "city": "Baltimore","region": "Ireland","zipCode": "N/A","cuisine": "Modern cuisine","price": "N/A","url": "https://guide.michelin.com/ie/en/cork/ie-baltimore/restaurant/mews","star": "1"}
{"index":{"_index":"michelin"}} 
{"name": "Ichigo Ichie","year": "2019", "pin":{"location":{"lat": "51.898167","lon": "-8.479933"}}, "city": "Corcaigh/Cork","region": "Ireland","zipCode": "N/A","cuisine": "Japanese","price": "N/A","url": "https://guide.michelin.com/ie/en/cork/corcaigh-cork/restaurant/ichigo-ichie","star": "1"}
{"index":{"_index":"michelin"}} 
{"name": "Chapter One","year": "2019", "pin":{"location":{"lat": "53.354374","lon": "-6.263786"}}, "city": "City Centre","region": "Ireland","zipCode": "D1","cuisine": "Modern cuisine","price": "N/A","url": "https://guide.michelin.com/ie/en/dublin/city-centre/restaurant/chapter-one","star": "1"}
{"index":{"_index":"michelin"}} 
{"name": "Greenhouse","year": "2019", "pin":{"location":{"lat": "53.340042","lon": "-6.258506"}}, "city": "City Centre","region": "Ireland","zipCode": "D2","cuisine": "Modern cuisine","price": "N/A","url": "https://guide.michelin.com/ie/en/dublin/city-centre/restaurant/greenhouse","star": "1"}
{"index":{"_index":"michelin"}} 
{"name": "L'Ecrivain","year": "2019", "pin":{"location":{"lat": "53.33627","lon": "-6.24834"}}, "city": "City Centre","region": "Ireland","zipCode": "D2","cuisine": "Modern cuisine","price": "N/A","url": "https://guide.michelin.com/ie/en/dublin/city-centre/restaurant/l-ecrivain","star": "1"}
{"index":{"_index":"michelin"}} 
{"name": "Campagne","year": "2019", "pin":{"location":{"lat": "52.6559","lon": "-7.2464285"}}, "city": "Cill Chainnigh/Kilkenny","region": "Ireland","zipCode": "N/A","cuisine": "Modern British","price": "N/A","url": "https://guide.michelin.com/ie/en/kilkenny/cill-chainnigh-kilkenny/restaurant/campagne","star": "1"}
{"index":{"_index":"michelin"}} 
{"name": "Heron & Grey","year": "2019", "pin":{"location":{"lat": "53.30143","lon": "-6.177574"}}, "city": "Blackrock","region": "Ireland","zipCode": "N/A","cuisine": "Modern cuisine","price": "N/A","url": "https://guide.michelin.com/ie/en/dun-laoghaire-rathdown/blackrock/restaurant/heron-grey","star": "1"}
{"index":{"_index":"michelin"}} 
{"name": "Lady Helen","year": "2019", "pin":{"location":{"lat": "52.526096","lon": "-7.188277"}}, "city": "Baile Mhic Andáin/Thomastown","region": "Ireland","zipCode": "N/A","cuisine": "Modern cuisine","price": "N/A","url": "https://guide.michelin.com/ie/en/kilkenny/baile-mhic-andain-thomastown/restaurant/lady-helen","star": "1"}
{"index":{"_index":"michelin"}} 
{"name": "House","year": "2019", "pin":{"location":{"lat": "51.94777","lon": "-7.7135396"}}, "city": "Aird Mhór/Ardmore","region": "Ireland","zipCode": "N/A","cuisine": "Modern cuisine","price": "N/A","url": "https://guide.michelin.com/ie/en/waterford/aird-mhor-ardmore/restaurant/house","star": "1"}
{"index":{"_index":"michelin"}} 
{"name": "Olympe","year": "2019", "pin":{"location":{"lat": "-22.96109","lon": "-43.20658"}}, "city": "Rio de Janeiro - 22470","region": "Rio de Janeiro","zipCode": "230","cuisine": "French","price": "$$$$$","url": "https://guide.michelin.com/br/en/rio-de-janeiro-region/rio-de-janeiro/restaurant/olympe","star": "1"}
{"index":{"_index":"michelin"}} 
{"name": "Lasai","year": "2019", "pin":{"location":{"lat": "-22.95401","lon": "-43.19557"}}, "city": "Rio de Janeiro - 22271","region": "Rio de Janeiro","zipCode": "20","cuisine": "modern","price": "$$$$$","url": "https://guide.michelin.com/br/en/rio-de-janeiro-region/rio-de-janeiro/restaurant/lasai","star": "1"}
{"index":{"_index":"michelin"}} 
{"name": "Oteque","year": "2019", "pin":{"location":{"lat": "-22.95747","lon": "-43.194424"}}, "city": "Rio de Janeiro - 22271","region": "Rio de Janeiro","zipCode": "20","cuisine": "modern","price": "$$$$$","url": "https://guide.michelin.com/br/en/rio-de-janeiro-region/rio-de-janeiro/restaurant/oteque","star": "1"}
{"index":{"_index":"michelin"}} 
{"name": "Mee","year": "2019", "pin":{"location":{"lat": "-22.96764","lon": "-43.17925"}}, "city": "Rio de Janeiro - 22021","region": "Rio de Janeiro","zipCode": "1","cuisine": "Asian influences","price": "$$$$$","url": "https://guide.michelin.com/br/en/rio-de-janeiro-region/rio-de-janeiro/restaurant/mee","star": "1"}
{"index":{"_index":"michelin"}} 
{"name": "Cipriani","year": "2019", "pin":{"location":{"lat": "-22.96755","lon": "-43.17901"}}, "city": "Rio de Janeiro - 22021","region": "Rio de Janeiro","zipCode": "1","cuisine": "Italian","price": "$$$$$","url": "https://guide.michelin.com/br/en/rio-de-janeiro-region/rio-de-janeiro/restaurant/cipriani","star": "1"}
{"index":{"_index":"michelin"}} 
{"name": "Jun Sakamoto","year": "2019", "pin":{"location":{"lat": "-23.56318","lon": "-46.67737"}}, "city": "São Paulo - 05413","region": "Sao Paulo","zipCode": "0","cuisine": "Japanese","price": "$$$$$","url": "https://guide.michelin.com/br/en/sao-paulo-region/sao-paulo/restaurant/jun-sakamoto","star": "1"}
{"index":{"_index":"michelin"}} 
{"name": "Maní","year": "2019", "pin":{"location":{"lat": "-23.56621","lon": "-46.67974"}}, "city": "São Paulo - 05415","region": "Sao Paulo","zipCode": "0","cuisine": "creative","price": "$$$$$","url": "https://guide.michelin.com/br/en/sao-paulo-region/sao-paulo/restaurant/mani","star": "1"}
{"index":{"_index":"michelin"}} 
{"name": "Evvai","year": "2019", "pin":{"location":{"lat": "-23.567078","lon": "-46.679146"}}, "city": "São Paulo - 05415","region": "Sao Paulo","zipCode": "0","cuisine": "modern","price": "$$$$$","url": "https://guide.michelin.com/br/en/sao-paulo-region/sao-paulo/restaurant/evvai","star": "1"}
{"index":{"_index":"michelin"}} 
{"name": "Picchi","year": "2019", "pin":{"location":{"lat": "-23.565063","lon": "-46.666767"}}, "city": "São Paulo - 01426","region": "Sao Paulo","zipCode": "1","cuisine": "Italian","price": "$$$$$","url": "https://guide.michelin.com/br/en/sao-paulo-region/sao-paulo/restaurant/picchi","star": "1"}
{"index":{"_index":"michelin"}} 
{"name": "Kosushi","year": "2019", "pin":{"location":{"lat": "-23.58522","lon": "-46.6809"}}, "city": "São Paulo - 04538","region": "Sao Paulo","zipCode": "110","cuisine": "Japanese","price": "$$$","url": "https://guide.michelin.com/br/en/sao-paulo-region/sao-paulo/restaurant/kosushi","star": "1"}
{"index":{"_index":"michelin"}} 
{"name": "Ryo Gastronomia","year": "2019", "pin":{"location":{"lat": "-23.58132","lon": "-46.6767"}}, "city": "São Paulo - 04531","region": "Sao Paulo","zipCode": "1","cuisine": "Japanese","price": "$$$$$","url": "https://guide.michelin.com/br/en/sao-paulo-region/sao-paulo/restaurant/ryo-gastronomia","star": "1"}
{"index":{"_index":"michelin"}} 
{"name": "Tangará Jean-Georges","year": "2019", "pin":{"location":{"lat": "-23.634005","lon": "-46.72428"}}, "city": "São Paulo - 05706","region": "Sao Paulo","zipCode": "290","cuisine": "modern","price": "$$$$$","url": "https://guide.michelin.com/br/en/sao-paulo-region/sao-paulo/restaurant/tangara-jean-georges","star": "1"}
{"index":{"_index":"michelin"}} 
{"name": "Kinoshita","year": "2019", "pin":{"location":{"lat": "-23.59159","lon": "-46.67146"}}, "city": "São Paulo - 04509","region": "Sao Paulo","zipCode": "1","cuisine": "Japanese","price": "$$$$$","url": "https://guide.michelin.com/br/en/sao-paulo-region/sao-paulo/restaurant/kinoshita","star": "1"}
{"index":{"_index":"michelin"}} 
{"name": "Kan Suke","year": "2019", "pin":{"location":{"lat": "-23.5684","lon": "-46.64936"}}, "city": "São Paulo - 01401","region": "Sao Paulo","zipCode": "0","cuisine": "Japanese","price": "$$$$$","url": "https://guide.michelin.com/br/en/sao-paulo-region/sao-paulo/restaurant/kan-suke","star": "1"}
{"index":{"_index":"michelin"}} 
{"name": "Huto","year": "2019", "pin":{"location":{"lat": "-23.60882","lon": "-46.6598"}}, "city": "São Paulo - 04080","region": "Sao Paulo","zipCode": "4","cuisine": "Japanese","price": "$$$$$","url": "https://guide.michelin.com/br/en/sao-paulo-region/sao-paulo/restaurant/huto","star": "1"}
{"index":{"_index":"michelin"}} 
{"name": "Stay","year": "2019", "pin":{"location":{"lat": "37.513004","lon": "127.10257"}}, "city": "Seoul","region": "South Korea","zipCode": "N/A","cuisine": "French contemporary","price": "$$$","url": "https://guide.michelin.com/kr/en/seoul-capital-area/kr-seoul/restaurant/stay","star": "1"}
{"index":{"_index":"michelin"}} 
{"name": "Lee Jong Kuk 104","year": "2019", "pin":{"location":{"lat": "37.592903","lon": "126.997284"}}, "city": "Seoul","region": "South Korea","zipCode": "N/A","cuisine": "Korean","price": "$$$$","url": "https://guide.michelin.com/kr/en/seoul-capital-area/kr-seoul/restaurant/lee-jong-kuk-104","star": "1"}
{"index":{"_index":"michelin"}} 
{"name": "Hansikgonggan","year": "2019", "pin":{"location":{"lat": "37.577705","lon": "126.98852"}}, "city": "Seoul","region": "South Korea","zipCode": "N/A","cuisine": "Korean","price": "$$$","url": "https://guide.michelin.com/kr/en/seoul-capital-area/kr-seoul/restaurant/hansikgonggan","star": "1"}
{"index":{"_index":"michelin"}} 
{"name": "Dining in Space","year": "2019", "pin":{"location":{"lat": "37.57761","lon": "126.98845"}}, "city": "Seoul","region": "South Korea","zipCode": "N/A","cuisine": "French contemporary","price": "$$$","url": "https://guide.michelin.com/kr/en/seoul-capital-area/kr-seoul/restaurant/dining-in-space","star": "1"}
{"index":{"_index":"michelin"}} 
{"name": "Exquisine","year": "2019", "pin":{"location":{"lat": "37.521046","lon": "127.049736"}}, "city": "Seoul","region": "South Korea","zipCode": "N/A","cuisine": "Innovative","price": "$$$","url": "https://guide.michelin.com/kr/en/seoul-capital-area/kr-seoul/restaurant/exquisine","star": "1"}
{"index":{"_index":"michelin"}} 
{"name": "Dosa","year": "2019", "pin":{"location":{"lat": "37.52445","lon": "127.04441"}}, "city": "Seoul","region": "South Korea","zipCode": "N/A","cuisine": "Innovative","price": "$$$","url": "https://guide.michelin.com/kr/en/seoul-capital-area/kr-seoul/restaurant/dosa511871","star": "1"}
{"index":{"_index":"michelin"}} 
{"name": "Joo Ok","year": "2019", "pin":{"location":{"lat": "37.52252","lon": "127.04396"}}, "city": "Seoul","region": "South Korea","zipCode": "N/A","cuisine": "Korean contemporary","price": "$$$","url": "https://guide.michelin.com/kr/en/seoul-capital-area/kr-seoul/restaurant/joo-ok","star": "1"}
{"index":{"_index":"michelin"}} 
{"name": "Balwoo Gongyang","year": "2019", "pin":{"location":{"lat": "37.57389","lon": "126.98318"}}, "city": "Seoul","region": "South Korea","zipCode": "N/A","cuisine": "Temple cuisine","price": "$$","url": "https://guide.michelin.com/kr/en/seoul-capital-area/kr-seoul/restaurant/balwoo-gongyang","star": "1"}
{"index":{"_index":"michelin"}} 
{"name": "Muoki","year": "2019", "pin":{"location":{"lat": "37.518963","lon": "127.04217"}}, "city": "Seoul","region": "South Korea","zipCode": "N/A","cuisine": "Innovative","price": "$$$","url": "https://guide.michelin.com/kr/en/seoul-capital-area/kr-seoul/restaurant/muoki","star": "1"}
{"index":{"_index":"michelin"}} 
{"name": "L'Amitié","year": "2019", "pin":{"location":{"lat": "37.522675","lon": "127.032646"}}, "city": "Seoul","region": "South Korea","zipCode": "N/A","cuisine": "French","price": "$$$","url": "https://guide.michelin.com/kr/en/seoul-capital-area/kr-seoul/restaurant/l-amitie","star": "1"}
{"index":{"_index":"michelin"}} 
{"name": "Yu Yuan","year": "2019", "pin":{"location":{"lat": "37.57045","lon": "126.97534"}}, "city": "Seoul","region": "South Korea","zipCode": "N/A","cuisine": "Chinese","price": "$$$","url": "https://guide.michelin.com/kr/en/seoul-capital-area/kr-seoul/restaurant/yu-yuan","star": "1"}
{"index":{"_index":"michelin"}} 
{"name": "Bicena","year": "2019", "pin":{"location":{"lat": "37.5384","lon": "127.00135"}},